edge_id,source_id,sink_id,source_name,sink_name,source_lat,source_lon,sink_lat,sink_lon,Record Count,delay,delay / travel time
9022003700021/9022003700525,9022003700021,9022003700525,Grindstugan (Uppsala),Uppsala Science Park (Uppsala),59.839989,17.63996,59.843157,17.638761,11251,-4,-0.06
9022003700525/9022003700021,9022003700525,9022003700021,Uppsala Science Park (Uppsala),Grindstugan (Uppsala),59.843157,17.638761,59.839989,17.63996,11216,-11,-0.13846153846153847
9022003700172/9022003700032,9022003700172,9022003700032,Skolgatan (Uppsala),Klostergatan (Uppsala),59.863106,17.635574,59.861158,17.636824,9808,-21,-0.1885245901639344
9022003700032/9022003700600,9022003700032,9022003700600,Klostergatan (Uppsala),Uppsala Centralstationen (Uppsala),59.861158,17.636824,59.858683,17.64372,9161,-40,-0.17733990147783252
9022003700032/9022003700172,9022003700032,9022003700172,Klostergatan (Uppsala),Skolgatan (Uppsala),59.861158,17.636824,59.863106,17.635574,8393,28,0.574468085106383
9022003700025/9022003700587,9022003700025,9022003700587,Akademiska sjukhuset södra (Uppsala),Akademiska sjukhuset (Uppsala),59.846323,17.638346,59.847473,17.642852,8360,-1,-0.01818181818181818
9022003700525/9022003700025,9022003700525,9022003700025,Uppsala Science Park (Uppsala),Akademiska sjukhuset södra (Uppsala),59.843157,17.638761,59.846323,17.638346,8360,0,0
9022003700587/9022003700578,9022003700587,9022003700578,Akademiska sjukhuset (Uppsala),Svandammen (Uppsala),59.847473,17.642852,59.854288,17.638927,8358,-73,-0.4427860696517413
9022003700025/9022003700525,9022003700025,9022003700525,Akademiska sjukhuset södra (Uppsala),Uppsala Science Park (Uppsala),59.846323,17.638346,59.843157,17.638761,8352,0,0
9022003700578/9022003700587,9022003700578,9022003700587,Svandammen (Uppsala),Akademiska sjukhuset (Uppsala),59.854288,17.638927,59.847473,17.642852,8352,0,0
9022003700162/9022003700172,9022003700162,9022003700172,Svartbäckens vårdcentral (Uppsala),Skolgatan (Uppsala),59.869091,17.628082,59.863106,17.635574,8349,-72,-0.3476190476190476
9022003700600/9022003700032,9022003700600,9022003700032,Uppsala Centralstationen (Uppsala),Klostergatan (Uppsala),59.858683,17.64372,59.861158,17.636824,8340,147,1.6153846153846154
9022003700172/9022003700162,9022003700172,9022003700162,Skolgatan (Uppsala),Svartbäckens vårdcentral (Uppsala),59.863106,17.635574,59.869091,17.628082,8239,17,0.16666666666666666
9022003700325/9022003700600,9022003700325,9022003700600,Bäverns gränd (Uppsala),Uppsala Centralstationen (Uppsala),59.856129,17.645311,59.858683,17.64372,8104,-76,-0.3560606060606061
9022003700062/9022003700600,9022003700062,9022003700600,Vaksala torg (Uppsala),Uppsala Centralstationen (Uppsala),59.861884,17.645968,59.858683,17.64372,8091,-35,-0.13565891472868216
9022003700600/9022003700062,9022003700600,9022003700062,Uppsala Centralstationen (Uppsala),Vaksala torg (Uppsala),59.858683,17.64372,59.861884,17.645968,8006,147,1.7692307692307692
9022003700578/9022003700325,9022003700578,9022003700325,Svandammen (Uppsala),Bäverns gränd (Uppsala),59.854288,17.638927,59.856129,17.645311,7615,62,0.797752808988764
9022003700494/9022003700025,9022003700494,9022003700025,Akademiska ingång 78-85 (Uppsala),Akademiska sjukhuset södra (Uppsala),59.84732,17.641577,59.846323,17.638346,7552,0,0
9022003700587/9022003700494,9022003700587,9022003700494,Akademiska sjukhuset (Uppsala),Akademiska ingång 78-85 (Uppsala),59.847473,17.642852,59.84732,17.641577,7552,-3,-0.05660377358490566
9022003700600/9022003700325,9022003700600,9022003700325,Uppsala Centralstationen (Uppsala),Bäverns gränd (Uppsala),59.858683,17.64372,59.856129,17.645311,7281,91,1.1910112359550562
9022003700259/9022003700600,9022003700259,9022003700600,Samariterhemmet (Uppsala),Uppsala Centralstationen (Uppsala),59.855191,17.650096,59.858683,17.64372,7111,-85,-0.4090909090909091
9022003700600/9022003700259,9022003700600,9022003700259,Uppsala Centralstationen (Uppsala),Samariterhemmet (Uppsala),59.858683,17.64372,59.855191,17.650096,7068,97,1.4193548387096775
9022003700325/9022003700578,9022003700325,9022003700578,Bäverns gränd (Uppsala),Svandammen (Uppsala),59.856129,17.645311,59.854288,17.638927,6756,31,0.36
9022003700064/9022003700001,9022003700064,9022003700001,Trädgårdsgatan (Uppsala),Stora Torget (Uppsala),59.857322,17.636399,59.858594,17.639199,5822,-110,-0.5714285714285714
9022003700065/9022003700064,9022003700065,9022003700064,Slottsbacken (Uppsala),Trädgårdsgatan (Uppsala),59.85489,17.632428,59.857322,17.636399,5816,34,1
9022003700001/9022003700064,9022003700001,9022003700064,Stora Torget (Uppsala),Trädgårdsgatan (Uppsala),59.858594,17.639199,59.857322,17.636399,5807,85,1.6376811594202898
9022003700064/9022003700065,9022003700064,9022003700065,Trädgårdsgatan (Uppsala),Slottsbacken (Uppsala),59.857322,17.636399,59.85489,17.632428,5804,14,0.3170731707317073
9022003700063/9022003700600,9022003700063,9022003700600,Vaksalagatan (Uppsala),Uppsala Centralstationen (Uppsala),59.860707,17.643421,59.858683,17.64372,5751,-160,-0.5490909090909091
9022003700600/9022003700063,9022003700600,9022003700063,Uppsala Centralstationen (Uppsala),Vaksalagatan (Uppsala),59.858683,17.64372,59.860707,17.643421,5732,118,1.9636363636363636
9022003700575/9022003700583,9022003700575,9022003700583,Blåsenhus (Uppsala),Evolutionsmuseet (Uppsala),59.851765,17.630508,59.850498,17.624121,5225,3,0.0967741935483871
9022003700583/9022003700069,9022003700583,9022003700069,Evolutionsmuseet (Uppsala),Birkagatan (Uppsala),59.850498,17.624121,59.846989,17.61747,5225,0,0
9022003700069/9022003700070,9022003700069,9022003700070,Birkagatan (Uppsala),Sommarro (Uppsala),59.846989,17.61747,59.843355,17.616666,5225,7,0.14583333333333334
9022003700070/9022003700071,9022003700070,9022003700071,Sommarro (Uppsala),Lindsbergsgatan (Uppsala),59.843355,17.616666,59.84185,17.61646,5222,1,0.025
9022003700069/9022003700583,9022003700069,9022003700583,Birkagatan (Uppsala),Evolutionsmuseet (Uppsala),59.846989,17.61747,59.850498,17.624121,5211,-2,-0.023255813953488372
9022003700583/9022003700575,9022003700583,9022003700575,Evolutionsmuseet (Uppsala),Blåsenhus (Uppsala),59.850498,17.624121,59.851765,17.630508,5211,-4,-0.07547169811320754
9022003700072/9022003700070,9022003700072,9022003700070,Täljstenen (Uppsala),Sommarro (Uppsala),59.839678,17.613791,59.843355,17.616666,5211,1,0.011904761904761904
9022003700071/9022003700072,9022003700071,9022003700072,Lindsbergsgatan (Uppsala),Täljstenen (Uppsala),59.84185,17.61646,59.839678,17.613791,5206,-45,-0.4020618556701031
9022003700070/9022003700069,9022003700070,9022003700069,Sommarro (Uppsala),Birkagatan (Uppsala),59.843355,17.616666,59.846989,17.61747,5205,-10,-0.14814814814814814
9022003700016/9022003700014,9022003700016,9022003700014,Linrepevägen (Uppsala),Gottsunda torg (Uppsala),59.813073,17.63415,59.811287,17.62694,5138,-11,-0.08208955223880597
9022003700593/9022003700066,9022003700593,9022003700066,Uppsala Akademiska sjukhuset västra,Segerstedthuset (Uppsala),59.849367,17.636426,59.852982,17.633394,4999,3,0.05084745762711865
9022003700066/9022003700593,9022003700066,9022003700593,Segerstedthuset (Uppsala),Uppsala Akademiska sjukhuset västra,59.852982,17.633394,59.849367,17.636426,4971,-2,-0.037037037037037035
9022003700014/9022003700016,9022003700014,9022003700016,Gottsunda torg (Uppsala),Linrepevägen (Uppsala),59.811287,17.62694,59.813073,17.63415,4954,51,0.7313432835820896
9022003700600/9022003700617,9022003700600,9022003700617,Uppsala Centralstationen (Uppsala),Uppsala Regionens hus,59.858683,17.64372,59.860449,17.64587,4897,18,0.175
9022003781210/9022003781199,9022003781210,9022003781199,Enköping station,S:t Ilian (Enköping),59.644447,17.086076,59.643688,17.081986,4888,30,0.5681818181818182
9022003700204/9022003700513,9022003700204,9022003700513,Möllersvärdsgatan (Uppsala),Uppsala Business Park västra (Uppsala),59.851727,17.696839,59.850242,17.700823,4741,-23,-0.4
9022003700513/9022003700204,9022003700513,9022003700204,Uppsala Business Park västra (Uppsala),Möllersvärdsgatan (Uppsala),59.850242,17.700823,59.851727,17.696839,4734,21,0.6486486486486487
9022003700541/9022003700146,9022003700541,9022003700146,Molngatan (Uppsala),Österängsgatan norra (Uppsala),59.86984,17.66312,59.866155,17.655148,4728,21,0.14925373134328357
9022003700581/9022003700062,9022003700581,9022003700062,Väderkvarnsgatan (Uppsala),Vaksala torg (Uppsala),59.864202,17.643918,59.861884,17.645968,4722,-12,-0.1076923076923077
9022003700146/9022003700541,9022003700146,9022003700541,Österängsgatan norra (Uppsala),Molngatan (Uppsala),59.866155,17.655148,59.86984,17.66312,4670,50,0.8411214953271028
9022003700062/9022003700581,9022003700062,9022003700581,Vaksala torg (Uppsala),Väderkvarnsgatan (Uppsala),59.861884,17.645968,59.864202,17.643918,4654,79,0.927536231884058
9022003700224/9022003700225,9022003700224,9022003700225,Veterinärvägen (Uppsala),Campus Ultuna (Uppsala),59.818594,17.658609,59.815615,17.659121,4592,-24,-0.2898550724637681
9022003700225/9022003700224,9022003700225,9022003700224,Campus Ultuna (Uppsala),Veterinärvägen (Uppsala),59.815615,17.659121,59.818594,17.658609,4571,15,0.22972972972972974
9022003781199/9022003781210,9022003781199,9022003781210,S:t Ilian (Enköping),Enköping station,59.643688,17.081986,59.644447,17.086076,4541,3,0.02857142857142857
9022003700135/9022003700134,9022003700135,9022003700134,Levertinsgatan (Uppsala),Almqvistgatan (Uppsala),59.874018,17.653317,59.876488,17.655168,4479,0,0
9022003700132/9022003700002,9022003700132,9022003700002,Lagerlöfsgatan (Uppsala),Fredrika Bremersgatan (Uppsala),59.880933,17.655112,59.886818,17.654831,4479,-64,-0.33183856502242154
9022003700134/9022003700132,9022003700134,9022003700132,Almqvistgatan (Uppsala),Lagerlöfsgatan (Uppsala),59.876488,17.655168,59.880933,17.655112,4476,-55,-0.5294117647058824
9022003700525/9022003700593,9022003700525,9022003700593,Uppsala Science Park (Uppsala),Uppsala Akademiska sjukhuset västra,59.843157,17.638761,59.849367,17.636426,4474,17,0.18181818181818182
9022003700593/9022003700525,9022003700593,9022003700525,Uppsala Akademiska sjukhuset västra,Uppsala Science Park (Uppsala),59.849367,17.636426,59.843157,17.638761,4460,12,0.12371134020618557
9022003700134/9022003700135,9022003700134,9022003700135,Almqvistgatan (Uppsala),Levertinsgatan (Uppsala),59.876488,17.655168,59.874018,17.653317,4427,-25,-0.375
9022003700132/9022003700134,9022003700132,9022003700134,Lagerlöfsgatan (Uppsala),Almqvistgatan (Uppsala),59.880933,17.655112,59.876488,17.655168,4427,26,0.4126984126984127
9022003700135/9022003700137,9022003700135,9022003700137,Levertinsgatan (Uppsala),Bureusgatan (Uppsala),59.874018,17.653317,59.870234,17.64725,4427,26,0.24369747899159663
9022003700002/9022003700132,9022003700002,9022003700132,Fredrika Bremersgatan (Uppsala),Lagerlöfsgatan (Uppsala),59.886818,17.654831,59.880933,17.655112,4403,8,0.06338028169014084
9022003700137/9022003700135,9022003700137,9022003700135,Bureusgatan (Uppsala),Levertinsgatan (Uppsala),59.870234,17.64725,59.874018,17.653317,4398,7,0.06206896551724138
9022003700333/9022003700547,9022003700333,9022003700547,Kungsängsesplanaden (Uppsala),Stålgatan södra (Uppsala),59.850218,17.659028,59.845717,17.67382,4343,14,0.08900523560209424
9022003700547/9022003700333,9022003700547,9022003700333,Stålgatan södra (Uppsala),Kungsängsesplanaden (Uppsala),59.845717,17.67382,59.850218,17.659028,4322,-80,-0.423963133640553
9022003700021/9022003700022,9022003700021,9022003700022,Grindstugan (Uppsala),Rosendals skola (Uppsala),59.839989,17.63996,59.832806,17.640636,4308,6,0.05714285714285714
9022003700022/9022003700020,9022003700022,9022003700020,Rosendals skola (Uppsala),Tallbacksvägen (Uppsala),59.832806,17.640636,59.826865,17.630109,4308,19,0.19767441860465115
9022003700020/9022003700579,9022003700020,9022003700579,Tallbacksvägen (Uppsala),Slädvägen (Uppsala),59.826865,17.630109,59.823037,17.626494,4308,9,0.16129032258064516
9022003700147/9022003700062,9022003700147,9022003700062,Torkelsgatan norra (Uppsala),Vaksala torg (Uppsala),59.864098,17.650696,59.861884,17.645968,4252,23,0.45588235294117646
9022003700022/9022003700021,9022003700022,9022003700021,Rosendals skola (Uppsala),Grindstugan (Uppsala),59.832806,17.640636,59.839989,17.63996,4247,7,0.047619047619047616
9022003700579/9022003700020,9022003700579,9022003700020,Slädvägen (Uppsala),Tallbacksvägen (Uppsala),59.823037,17.626494,59.826865,17.630109,4246,7,0.11666666666666667
9022003700146/9022003700147,9022003700146,9022003700147,Österängsgatan norra (Uppsala),Torkelsgatan norra (Uppsala),59.866155,17.655148,59.864098,17.650696,4246,-1,-0.016129032258064516
9022003700020/9022003700022,9022003700020,9022003700022,Tallbacksvägen (Uppsala),Rosendals skola (Uppsala),59.826865,17.630109,59.832806,17.640636,4224,20,0.20987654320987653
9022003700065/9022003700575,9022003700065,9022003700575,Slottsbacken (Uppsala),Blåsenhus (Uppsala),59.85489,17.632428,59.851765,17.630508,4181,12,0.1774193548387097
9022003700147/9022003700146,9022003700147,9022003700146,Torkelsgatan norra (Uppsala),Österängsgatan norra (Uppsala),59.864098,17.650696,59.866155,17.655148,4114,-1,-0.023809523809523808
9022003700062/9022003700147,9022003700062,9022003700147,Vaksala torg (Uppsala),Torkelsgatan norra (Uppsala),59.861884,17.645968,59.864098,17.650696,4114,27,0.2457627118644068
9022003700575/9022003700065,9022003700575,9022003700065,Blåsenhus (Uppsala),Slottsbacken (Uppsala),59.851765,17.630508,59.85489,17.632428,4109,1,0.012195121951219513
9022003700201/9022003700203,9022003700201,9022003700203,Axel Johanssons gata (Uppsala),Hanselligatan (Uppsala),59.857169,17.689901,59.852417,17.693808,3980,-15,-0.13392857142857142
9022003700203/9022003700201,9022003700203,9022003700201,Hanselligatan (Uppsala),Axel Johanssons gata (Uppsala),59.852417,17.693808,59.857169,17.689901,3979,3,0.0379746835443038
9022003700172/9022003700063,9022003700172,9022003700063,Skolgatan (Uppsala),Vaksalagatan (Uppsala),59.863106,17.635574,59.860707,17.643421,3976,60,0.922077922077922
9022003700539/9022003700259,9022003700539,9022003700259,Strandbodgatan (Uppsala),Samariterhemmet (Uppsala),59.853083,17.653834,59.855191,17.650096,3973,8,0.16666666666666666
9022003700336/9022003700335,9022003700336,9022003700335,Kuggebro (Uppsala),Östra Vindbrovägen (Uppsala),59.832305,17.690761,59.84405,17.673601,3972,13,0.12871287128712872
9022003700334/9022003700333,9022003700334,9022003700333,Vimpelgatan (Uppsala),Kungsängsesplanaden (Uppsala),59.8482,17.662699,59.850218,17.659028,3972,-3,-0.04285714285714286
9022003700333/9022003700539,9022003700333,9022003700539,Kungsängsesplanaden (Uppsala),Strandbodgatan (Uppsala),59.850218,17.659028,59.853083,17.653834,3972,-11,-0.14925373134328357
9022003700335/9022003700334,9022003700335,9022003700334,Östra Vindbrovägen (Uppsala),Vimpelgatan (Uppsala),59.84405,17.673601,59.8482,17.662699,3972,-34,-0.30275229357798167
9022003700063/9022003700172,9022003700063,9022003700172,Vaksalagatan (Uppsala),Skolgatan (Uppsala),59.860707,17.643421,59.863106,17.635574,3945,35,0.37735849056603776
9022003700062/9022003700001,9022003700062,9022003700001,Vaksala torg (Uppsala),Stora Torget (Uppsala),59.861884,17.645968,59.858594,17.639199,3934,-81,-0.2787456445993031
9022003700539/9022003700333,9022003700539,9022003700333,Strandbodgatan (Uppsala),Kungsängsesplanaden (Uppsala),59.853083,17.653834,59.850218,17.659028,3896,-18,-0.2159090909090909
9022003700335/9022003700336,9022003700335,9022003700336,Östra Vindbrovägen (Uppsala),Kuggebro (Uppsala),59.84405,17.673601,59.832305,17.690761,3896,6,0.06593406593406594
9022003700334/9022003700335,9022003700334,9022003700335,Vimpelgatan (Uppsala),Östra Vindbrovägen (Uppsala),59.8482,17.662699,59.84405,17.673601,3896,15,0.1836734693877551
9022003700333/9022003700334,9022003700333,9022003700334,Kungsängsesplanaden (Uppsala),Vimpelgatan (Uppsala),59.850218,17.659028,59.8482,17.662699,3896,0,0
9022003700259/9022003700539,9022003700259,9022003700539,Samariterhemmet (Uppsala),Strandbodgatan (Uppsala),59.855191,17.650096,59.853083,17.653834,3894,32,0.6071428571428571
9022003700201/9022003700053,9022003700201,9022003700053,Axel Johanssons gata (Uppsala),Årstagården (Uppsala),59.857169,17.689901,59.861087,17.685231,3874,25,0.3472222222222222
9022003700053/9022003700636,9022003700053,9022003700636,Årstagården (Uppsala),Uppsala Årsta torg,59.861087,17.685231,59.865787,17.681747,3874,-3,-0.0379746835443038
9022003700001/9022003700062,9022003700001,9022003700062,Stora Torget (Uppsala),Vaksala torg (Uppsala),59.858594,17.639199,59.861884,17.645968,3870,125,1.4415584415584415
9022003700053/9022003700201,9022003700053,9022003700201,Årstagården (Uppsala),Axel Johanssons gata (Uppsala),59.861087,17.685231,59.857169,17.689901,3836,19,0.2894736842105263
9022003700636/9022003700053,9022003700636,9022003700053,Uppsala Årsta torg,Årstagården (Uppsala),59.865787,17.681747,59.861087,17.685231,3815,0,0
9022003700125/9022003700126,9022003700125,9022003700126,Djäknegatan (Uppsala),Portalgatan (Uppsala),59.87136,17.639224,59.867586,17.63948,3780,-2,-0.03
9022003700126/9022003700125,9022003700126,9022003700125,Portalgatan (Uppsala),Djäknegatan (Uppsala),59.867586,17.63948,59.87136,17.639224,3737,0,0
9022003700110/9022003700591,9022003700110,9022003700591,Saluhallen (Uppsala),Stadsbiblioteket (Uppsala),59.859532,17.632414,59.861031,17.635638,3693,0,0
9022003700622/9022003700600,9022003700622,9022003700600,Uppsala Stadshuset,Uppsala Centralstationen (Uppsala),59.86072,17.643797,59.858683,17.64372,3690,-4,-0.03333333333333333
9022003700591/9022003700110,9022003700591,9022003700110,Stadsbiblioteket (Uppsala),Saluhallen (Uppsala),59.861031,17.635638,59.859532,17.632414,3657,21,0.4
9022003700170/9022003700169,9022003700170,9022003700169,Gnejsvägen (Uppsala),Västertorg (Uppsala),59.839828,17.596263,59.840677,17.602445,3620,-7,-0.09090909090909091
9022003700166/9022003700072,9022003700166,9022003700072,Glimmervägen (Uppsala),Täljstenen (Uppsala),59.840059,17.608263,59.839678,17.613791,3620,-8,-0.08163265306122448
9022003700072/9022003700166,9022003700072,9022003700166,Täljstenen (Uppsala),Glimmervägen (Uppsala),59.839678,17.613791,59.840059,17.608263,3573,0,0
9022003700169/9022003700170,9022003700169,9022003700170,Västertorg (Uppsala),Gnejsvägen (Uppsala),59.840677,17.602445,59.839828,17.596263,3559,7,0.15217391304347827
9022003781002/9022003781199,9022003781002,9022003781199,Gustav Adolfs plan (Enköping),S:t Ilian (Enköping),59.636758,17.075465,59.643688,17.081986,3507,-45,-0.22265625
9022003781199/9022003781002,9022003781199,9022003781002,S:t Ilian (Enköping),Gustav Adolfs plan (Enköping),59.643688,17.081986,59.636758,17.075465,3478,-3,-0.0196078431372549
9022003700085/9022003700086,9022003700085,9022003700086,Entitparken (Uppsala),Långvägen (Uppsala),59.799628,17.644158,59.796724,17.641237,3469,5,0.11428571428571428
9022003700086/9022003700392,9022003700086,9022003700392,Långvägen (Uppsala),Svankärrsvägen (Uppsala),59.796724,17.641237,59.792518,17.643464,3468,-17,-0.2537313432835821
9022003700083/9022003700085,9022003700083,9022003700085,Morkullevägen (Uppsala),Entitparken (Uppsala),59.803049,17.644097,59.799628,17.644158,3463,12,0.39285714285714285
9022003700392/9022003700393,9022003700392,9022003700393,Svankärrsvägen (Uppsala),Trasthagen (Uppsala),59.792518,17.643464,59.789335,17.645711,3463,-12,-0.225
9022003700066/9022003700065,9022003700066,9022003700065,Segerstedthuset (Uppsala),Slottsbacken (Uppsala),59.852982,17.633394,59.85489,17.632428,3433,3,0.05
9022003700572/9022003700021,9022003700572,9022003700021,Polacksbacken (Uppsala),Grindstugan (Uppsala),59.840257,17.647825,59.839989,17.63996,3391,0,0
9022003700574/9022003700222,9022003700574,9022003700222,Ekudden (Uppsala),Kronparksgården (Uppsala),59.827178,17.654075,59.828995,17.651215,3391,0,0
9022003700218/9022003700572,9022003700218,9022003700572,Lundellska skolan (Uppsala),Polacksbacken (Uppsala),59.838602,17.65123,59.840257,17.647825,3391,-1,-0.010526315789473684
9022003700221/9022003700400,9022003700221,9022003700400,Gustaf Kjellbergs väg (Uppsala),Lägerhyddsvägen (Uppsala),59.831564,17.649877,59.839062,17.651041,3391,-11,-0.1326530612244898
9022003700223/9022003700574,9022003700223,9022003700574,SVA (Uppsala),Ekudden (Uppsala),59.822189,17.65642,59.827178,17.654075,3391,-21,-0.21138211382113822
9022003700400/9022003700218,9022003700400,9022003700218,Lägerhyddsvägen (Uppsala),Lundellska skolan (Uppsala),59.839062,17.651041,59.838602,17.65123,3391,-19,-0.26666666666666666
9022003700224/9022003700223,9022003700224,9022003700223,Veterinärvägen (Uppsala),SVA (Uppsala),59.818594,17.658609,59.822189,17.65642,3391,-1,-0.016666666666666666
9022003700221/9022003700222,9022003700221,9022003700222,Gustaf Kjellbergs väg (Uppsala),Kronparksgården (Uppsala),59.831564,17.649877,59.828995,17.651215,3386,23,0.46
9022003700572/9022003700218,9022003700572,9022003700218,Polacksbacken (Uppsala),Lundellska skolan (Uppsala),59.840257,17.647825,59.838602,17.65123,3386,-34,-0.2733812949640288
9022003700400/9022003700221,9022003700400,9022003700221,Lägerhyddsvägen (Uppsala),Gustaf Kjellbergs väg (Uppsala),59.839062,17.651041,59.831564,17.649877,3386,-2,-0.02702702702702703
9022003700222/9022003700574,9022003700222,9022003700574,Kronparksgården (Uppsala),Ekudden (Uppsala),59.828995,17.651215,59.827178,17.654075,3386,16,0.3783783783783784
9022003700223/9022003700224,9022003700223,9022003700224,SVA (Uppsala),Veterinärvägen (Uppsala),59.822189,17.65642,59.818594,17.658609,3386,1,0.02702702702702703
9022003700574/9022003700223,9022003700574,9022003700223,Ekudden (Uppsala),SVA (Uppsala),59.827178,17.654075,59.822189,17.65642,3386,-15,-0.17857142857142858
9022003700218/9022003700400,9022003700218,9022003700400,Lundellska skolan (Uppsala),Lägerhyddsvägen (Uppsala),59.838602,17.65123,59.839062,17.651041,3386,-8,-0.13725490196078433
9022003700021/9022003700572,9022003700021,9022003700572,Grindstugan (Uppsala),Polacksbacken (Uppsala),59.839989,17.63996,59.840257,17.647825,3386,-48,-0.3310344827586207
9022003700222/9022003700221,9022003700222,9022003700221,Kronparksgården (Uppsala),Gustaf Kjellbergs väg (Uppsala),59.828995,17.651215,59.831564,17.649877,3385,27,0.4024390243902439
9022003700065/9022003700066,9022003700065,9022003700066,Slottsbacken (Uppsala),Segerstedthuset (Uppsala),59.85489,17.632428,59.852982,17.633394,3358,12,0.2653061224489796
9022003700086/9022003700085,9022003700086,9022003700085,Långvägen (Uppsala),Entitparken (Uppsala),59.796724,17.641237,59.799628,17.644158,3343,3,0.06382978723404255
9022003700085/9022003700083,9022003700085,9022003700083,Entitparken (Uppsala),Morkullevägen (Uppsala),59.799628,17.644158,59.803049,17.644097,3343,0,0
9022003700393/9022003700392,9022003700393,9022003700392,Trasthagen (Uppsala),Svankärrsvägen (Uppsala),59.789335,17.645711,59.792518,17.643464,3326,12,0.24390243902439024
9022003700392/9022003700086,9022003700392,9022003700086,Svankärrsvägen (Uppsala),Långvägen (Uppsala),59.792518,17.643464,59.796724,17.641237,3326,-10,-0.10989010989010989
9022003700536/9022003700104,9022003700536,9022003700104,Stenhagen (Uppsala),Flogsta centrum (Uppsala),59.848034,17.564211,59.852083,17.587641,3314,-19,-0.15079365079365079
9022003700212/9022003700488,9022003700212,9022003700488,Stenröset (Uppsala),Stenhagens centrum (Uppsala),59.852678,17.564063,59.850824,17.558987,3287,-5,-0.10638297872340426
9022003700213/9022003700212,9022003700213,9022003700212,Stenhällen (Uppsala),Stenröset (Uppsala),59.854891,17.56841,59.852678,17.564063,3287,6,0.11688311688311688
9022003700610/9022003700214,9022003700610,9022003700214,Hedensbergsvägen (Uppsala),Gatstenen (Uppsala),59.850917,17.572232,59.853822,17.571173,3287,-2,-0.04
9022003700214/9022003700213,9022003700214,9022003700213,Gatstenen (Uppsala),Stenhällen (Uppsala),59.853822,17.571173,59.854891,17.56841,3287,6,0.2727272727272727
9022003700104/9022003700610,9022003700104,9022003700610,Flogsta centrum (Uppsala),Hedensbergsvägen (Uppsala),59.852083,17.587641,59.850917,17.572232,3287,33,0.5
9022003700617/9022003700622,9022003700617,9022003700622,Uppsala Regionens hus,Uppsala Stadshuset,59.860449,17.64587,59.86072,17.643797,3274,49,1.5517241379310345
9022003700129/9022003700172,9022003700129,9022003700172,Ekonomikum (Uppsala),Skolgatan (Uppsala),59.860404,17.620003,59.863106,17.635574,3268,-14,-0.0783132530120482
9022003700172/9022003700129,9022003700172,9022003700129,Skolgatan (Uppsala),Ekonomikum (Uppsala),59.863106,17.635574,59.860404,17.620003,3259,53,0.375886524822695
9022003700104/9022003700536,9022003700104,9022003700536,Flogsta centrum (Uppsala),Stenhagen (Uppsala),59.852083,17.587641,59.848034,17.564211,3254,7,0.06422018348623854
9022003700368/9022003700369,9022003700368,9022003700369,Tunabergsallén (Uppsala),Tuna backar (Uppsala),59.878229,17.622938,59.875571,17.624311,3235,0,0
9022003700369/9022003700162,9022003700369,9022003700162,Tuna backar (Uppsala),Svartbäckens vårdcentral (Uppsala),59.875571,17.624311,59.869091,17.628082,3235,51,0.7567567567567568
9022003700137/9022003700139,9022003700137,9022003700139,Bureusgatan (Uppsala),Kvarntorget (Uppsala),59.870234,17.64725,59.866282,17.646693,3226,-20,-0.1652892561983471
9022003700213/9022003700214,9022003700213,9022003700214,Stenhällen (Uppsala),Gatstenen (Uppsala),59.854891,17.56841,59.853822,17.571173,3185,13,0.47058823529411764
9022003700214/9022003700610,9022003700214,9022003700610,Gatstenen (Uppsala),Hedensbergsvägen (Uppsala),59.853822,17.571173,59.850917,17.572232,3185,-1,-0.0196078431372549
9022003700212/9022003700213,9022003700212,9022003700213,Stenröset (Uppsala),Stenhällen (Uppsala),59.852678,17.564063,59.854891,17.56841,3185,18,0.30985915492957744
9022003700369/9022003700368,9022003700369,9022003700368,Tuna backar (Uppsala),Tunabergsallén (Uppsala),59.875571,17.624311,59.878229,17.622938,3176,-2,-0.047619047619047616
9022003700162/9022003700369,9022003700162,9022003700369,Svartbäckens vårdcentral (Uppsala),Tuna backar (Uppsala),59.869091,17.628082,59.875571,17.624311,3176,27,0.3197278911564626
9022003700259/9022003700333,9022003700259,9022003700333,Samariterhemmet (Uppsala),Kungsängsesplanaden (Uppsala),59.855191,17.650096,59.850218,17.659028,3175,12,0.11023622047244094
9022003700581/9022003700139,9022003700581,9022003700139,Väderkvarnsgatan (Uppsala),Kvarntorget (Uppsala),59.864202,17.643918,59.866282,17.646693,3171,10,0.22727272727272727
9022003700139/9022003700137,9022003700139,9022003700137,Kvarntorget (Uppsala),Bureusgatan (Uppsala),59.866282,17.646693,59.870234,17.64725,3171,22,0.36666666666666664
9022003700610/9022003700104,9022003700610,9022003700104,Hedensbergsvägen (Uppsala),Flogsta centrum (Uppsala),59.850917,17.572232,59.852083,17.587641,3164,-19,-0.12903225806451613
9022003700333/9022003700259,9022003700333,9022003700259,Kungsängsesplanaden (Uppsala),Samariterhemmet (Uppsala),59.850218,17.659028,59.855191,17.650096,3161,-13,-0.10666666666666667
9022003700315/9022003700316,9022003700315,9022003700316,Ärna bro (Uppsala),Ärna gård (Uppsala),59.9097,17.607728,59.90406,17.610426,3146,0,0
9022003700316/9022003700317,9022003700316,9022003700317,Ärna gård (Uppsala),Lilla Myrby (Uppsala),59.90406,17.610426,59.893152,17.615677,3146,-3,-0.047619047619047616
9022003700317/9022003700368,9022003700317,9022003700368,Lilla Myrby (Uppsala),Tunabergsallén (Uppsala),59.893152,17.615677,59.878229,17.622938,3141,-68,-0.3393665158371041
9022003700566/9022003700374,9022003700566,9022003700374,Seminariegatan (Uppsala),Gimogatan (Uppsala),59.869618,17.613934,59.868859,17.607715,3136,-18,-0.3076923076923077
9022003700552/9022003700566,9022003700552,9022003700566,Klockarängen (Uppsala),Seminariegatan (Uppsala),59.869618,17.613934,59.869618,17.613934,3136,-7,-0.14583333333333334
9022003700330/9022003700552,9022003700330,9022003700552,Fyrishov (Uppsala),Klockarängen (Uppsala),59.87118,17.626946,59.869618,17.613934,3136,3,0.05555555555555555
9022003700374/9022003700566,9022003700374,9022003700566,Gimogatan (Uppsala),Seminariegatan (Uppsala),59.868859,17.607715,59.869618,17.613934,3128,-2,-0.03278688524590164
9022003700552/9022003700330,9022003700552,9022003700330,Klockarängen (Uppsala),Fyrishov (Uppsala),59.869618,17.613934,59.87118,17.626946,3128,-32,-0.35789473684210527
9022003700566/9022003700552,9022003700566,9022003700552,Seminariegatan (Uppsala),Klockarängen (Uppsala),59.869618,17.613934,59.869618,17.613934,3128,-6,-0.14035087719298245
9022003700169/9022003700166,9022003700169,9022003700166,Västertorg (Uppsala),Glimmervägen (Uppsala),59.840677,17.602445,59.840059,17.608263,3095,16,0.27586206896551724
9022003700367/9022003700336,9022003700367,9022003700336,Nämndemansvägen (Uppsala),Kuggebro (Uppsala),59.820876,17.696998,59.832305,17.690761,3090,12,0.1348314606741573
9022003700317/9022003700316,9022003700317,9022003700316,Lilla Myrby (Uppsala),Ärna gård (Uppsala),59.893152,17.615677,59.90406,17.610426,3086,-5,-0.07142857142857142
9022003700368/9022003700317,9022003700368,9022003700317,Tunabergsallén (Uppsala),Lilla Myrby (Uppsala),59.878229,17.622938,59.893152,17.615677,3086,-6,-0.046153846153846156
9022003700166/9022003700169,9022003700166,9022003700169,Glimmervägen (Uppsala),Västertorg (Uppsala),59.840059,17.608263,59.840677,17.602445,3062,-6,-0.08490566037735849
9022003191225/9022003191086,9022003191225,9022003191086,Terminal 4 (Arlanda) (Sigtuna),Terminal 2 -3 (Arlanda) (Sigtuna),59.64677,17.928548,59.64409,17.929886,3046,-43,-0.28888888888888886
9022003191042/9022003191225,9022003191042,9022003191225,Terminal 5 (Arlanda) (Sigtuna),Terminal 4 (Arlanda) (Sigtuna),59.651623,17.933804,59.64677,17.928548,3046,0,0
9022003700336/9022003700367,9022003700336,9022003700367,Kuggebro (Uppsala),Nämndemansvägen (Uppsala),59.832305,17.690761,59.820876,17.696998,3034,-20,-0.14960629921259844
9022003700387/9022003700388,9022003700387,9022003700388,Ulleråker norra (Uppsala),Hammarby kyrkogård (Uppsala),59.83276,17.642666,59.82776,17.644513,3030,-20,-0.25301204819277107
9022003781216/9022003781210,9022003781216,9022003781210,Herrgården (Enköping),Enköping station,59.644577,17.103974,59.644447,17.086076,3021,-93,-0.4146341463414634
9022003700104/9022003700103,9022003700104,9022003700103,Flogsta centrum (Uppsala),Sernanders väg (Uppsala),59.852083,17.587641,59.851181,17.59391,3001,26,0.47540983606557374
9022003700103/9022003700101,9022003700103,9022003700101,Sernanders väg (Uppsala),Ekebyhus (Uppsala),59.851181,17.59391,59.851643,17.603465,3001,19,0.4186046511627907
9022003700388/9022003700387,9022003700388,9022003700387,Hammarby kyrkogård (Uppsala),Ulleråker norra (Uppsala),59.82776,17.644513,59.83276,17.642666,2967,-4,-0.07142857142857142
9022003700101/9022003700103,9022003700101,9022003700103,Ekebyhus (Uppsala),Sernanders väg (Uppsala),59.851643,17.603465,59.851181,17.59391,2914,16,0.3695652173913043
9022003700103/9022003700104,9022003700103,9022003700104,Sernanders väg (Uppsala),Flogsta centrum (Uppsala),59.851181,17.59391,59.852083,17.587641,2911,-21,-0.2857142857142857
9022003781210/9022003781216,9022003781210,9022003781216,Enköping station,Herrgården (Enköping),59.644447,17.086076,59.644577,17.103974,2860,46,0.41509433962264153
9022003700314/9022003700315,9022003700314,9022003700315,Lilla Vallskog (Uppsala),Ärna bro (Uppsala),59.919614,17.602901,59.9097,17.607728,2820,0,0
9022003700313/9022003700314,9022003700313,9022003700314,Stora Vallskog (Uppsala),Lilla Vallskog (Uppsala),59.925814,17.59991,59.919614,17.602901,2820,0,0
9022003700312/9022003700313,9022003700312,9022003700313,Svista (Uppsala),Stora Vallskog (Uppsala),59.932538,17.596624,59.925814,17.59991,2820,6,0.17073170731707318
9022003700316/9022003700315,9022003700316,9022003700315,Ärna gård (Uppsala),Ärna bro (Uppsala),59.90406,17.610426,59.9097,17.607728,2753,-2,-0.06896551724137931
9022003700313/9022003700312,9022003700313,9022003700312,Stora Vallskog (Uppsala),Svista (Uppsala),59.925814,17.59991,59.932538,17.596624,2736,-1,-0.03125
9022003700315/9022003700314,9022003700315,9022003700314,Ärna bro (Uppsala),Lilla Vallskog (Uppsala),59.9097,17.607728,59.919614,17.602901,2736,-6,-0.09523809523809523
9022003700314/9022003700313,9022003700314,9022003700313,Lilla Vallskog (Uppsala),Stora Vallskog (Uppsala),59.919614,17.602901,59.925814,17.59991,2736,-5,-0.11363636363636363
9022003700139/9022003700581,9022003700139,9022003700581,Kvarntorget (Uppsala),Väderkvarnsgatan (Uppsala),59.866282,17.646693,59.864202,17.643918,2701,0,0
9022003700057/9022003700058,9022003700057,9022003700058,Apelgatan (Uppsala),Byggmästargatan (Uppsala),59.865955,17.672473,59.866159,17.668842,2686,1,0.018867924528301886
9022003700019/9022003700017,9022003700019,9022003700017,Valsätraskolan (Uppsala),Barkspadevägen (Uppsala),59.821549,17.628891,59.818051,17.633834,2685,6,0.15
9022003700011/9022003700010,9022003700011,9022003700010,Jenny Linds väg (Uppsala),Solistvägen (Uppsala),59.804633,17.628377,59.80303,17.628682,2685,-5,-0.14705882352941177
9022003700012/9022003700011,9022003700012,9022003700011,Vackra Birgers väg (Uppsala),Jenny Linds väg (Uppsala),59.807059,17.624963,59.804633,17.628377,2685,-18,-0.2602739726027397
9022003700010/9022003700009,9022003700010,9022003700009,Solistvägen (Uppsala),Flöjtvägen (Uppsala),59.80303,17.628682,59.803482,17.631754,2685,-18,-0.2222222222222222
9022003700017/9022003700016,9022003700017,9022003700016,Barkspadevägen (Uppsala),Linrepevägen (Uppsala),59.818051,17.633834,59.813073,17.63415,2685,0,0
9022003700014/9022003700013,9022003700014,9022003700013,Gottsunda torg (Uppsala),Bröderna Berwalds väg (Uppsala),59.811287,17.62694,59.810294,17.625407,2685,16,0.22388059701492538
9022003700013/9022003700012,9022003700013,9022003700012,Bröderna Berwalds väg (Uppsala),Vackra Birgers väg (Uppsala),59.810294,17.625407,59.807059,17.624963,2685,-15,-0.19230769230769232
9022003700579/9022003700019,9022003700579,9022003700019,Slädvägen (Uppsala),Valsätraskolan (Uppsala),59.823037,17.626494,59.821549,17.628891,2685,12,0.5454545454545454
9022003700009/9022003700006,9022003700009,9022003700006,Flöjtvägen (Uppsala),Cellovägen (Uppsala),59.803482,17.631754,59.805633,17.637806,2680,-78,-0.6106870229007634
9022003700311/9022003700312,9022003700311,9022003700312,Ärentuna vägskäl (Uppsala),Svista (Uppsala),59.938321,17.593858,59.932538,17.596624,2679,3,0.08333333333333333
9022003700310/9022003700311,9022003700310,9022003700311,Lytta (Uppsala),Ärentuna vägskäl (Uppsala),59.943833,17.591238,59.938321,17.593858,2679,0,0
9022003700062/9022003700146,9022003700062,9022003700146,Vaksala torg (Uppsala),Österängsgatan norra (Uppsala),59.861884,17.645968,59.866155,17.655148,2672,32,0.3253012048192771
9022003700541/9022003700141,9022003700541,9022003700141,Molngatan (Uppsala),Gränbystaden (Uppsala),59.86984,17.66312,59.875371,17.675144,2672,17,0.14018691588785046
9022003700146/9022003700062,9022003700146,9022003700062,Österängsgatan norra (Uppsala),Vaksala torg (Uppsala),59.866155,17.655148,59.861884,17.645968,2649,-6,-0.03680981595092025
9022003700141/9022003700541,9022003700141,9022003700541,Gränbystaden (Uppsala),Molngatan (Uppsala),59.875371,17.675144,59.86984,17.66312,2649,-41,-0.25
9022003700425/9022003780202,9022003700425,9022003780202,Brillinge (Uppsala),Skäve (Uppsala),59.878468,17.68214,59.890125,17.698234,2634,20,0.20618556701030927
9022003700284/9022003700285,9022003700284,9022003700285,Ultunaallén (Uppsala),Holmvägen (Uppsala),59.813145,17.650874,59.80566,17.652581,2634,16,0.24242424242424243
9022003700311/9022003700310,9022003700311,9022003700310,Ärentuna vägskäl (Uppsala),Lytta (Uppsala),59.938321,17.593858,59.943833,17.591238,2628,-1,-0.02631578947368421
9022003700312/9022003700311,9022003700312,9022003700311,Svista (Uppsala),Ärentuna vägskäl (Uppsala),59.932538,17.596624,59.938321,17.593858,2628,4,0.125
9022003700058/9022003700057,9022003700058,9022003700057,Byggmästargatan (Uppsala),Apelgatan (Uppsala),59.866159,17.668842,59.865955,17.672473,2627,4,0.11428571428571428
9022003700512/9022003700527,9022003700512,9022003700527,Uppsala Business Park östra (Uppsala),Uppsala Business Park Norra (Uppsala),59.84974,17.708896,59.85315,17.710251,2625,-48,-0.43537414965986393
9022003700513/9022003700512,9022003700513,9022003700512,Uppsala Business Park västra (Uppsala),Uppsala Business Park östra (Uppsala),59.850242,17.700823,59.84974,17.708896,2617,16,0.16666666666666666
9022003700142/9022003700143,9022003700142,9022003700143,Gränbyvägen (Uppsala),Tövädersgatan (Uppsala),59.873412,17.670873,59.872,17.667847,2616,-1,-0.0196078431372549
9022003700141/9022003700142,9022003700141,9022003700142,Gränbystaden (Uppsala),Gränbyvägen (Uppsala),59.875371,17.675144,59.873412,17.670873,2616,0,0
9022003700143/9022003700541,9022003700143,9022003700541,Tövädersgatan (Uppsala),Molngatan (Uppsala),59.872,17.667847,59.86984,17.66312,2616,1,0.0196078431372549
9022003781166/9022003781172,9022003781166,9022003781172,Lasarettet (Enköping),Kommunhuset (Enköping),59.629217,17.068019,59.631853,17.072124,2616,20,0.3584905660377358
9022003780202/9022003780201,9022003780202,9022003780201,Skäve (Uppsala),Godegård (Uppsala),59.890125,17.698234,59.898092,17.708606,2601,10,0.22727272727272727
9022003700141/9022003700425,9022003700141,9022003700425,Gränbystaden (Uppsala),Brillinge (Uppsala),59.875371,17.675144,59.878468,17.68214,2585,30,0.5161290322580645
9022003700285/9022003700284,9022003700285,9022003700284,Holmvägen (Uppsala),Ultunaallén (Uppsala),59.80566,17.652581,59.813145,17.650874,2581,-15,-0.15
9022003700536/9022003779087,9022003700536,9022003779087,Stenhagen (Uppsala),Kvarnbolund (Uppsala),59.848034,17.564211,59.845552,17.553071,2579,45,1.025
9022003700512/9022003700513,9022003700512,9022003700513,Uppsala Business Park östra (Uppsala),Uppsala Business Park västra (Uppsala),59.84974,17.708896,59.850242,17.700823,2575,3,0.04477611940298507
9022003700104/9022003700278,9022003700104,9022003700278,Flogsta centrum (Uppsala),Hildur Ottelinsgatan (Uppsala),59.852083,17.587641,59.855766,17.607953,2571,-62,-0.31555555555555553
9022003700527/9022003700512,9022003700527,9022003700512,Uppsala Business Park Norra (Uppsala),Uppsala Business Park östra (Uppsala),59.85315,17.710251,59.84974,17.708896,2563,39,0.7
9022003700278/9022003700104,9022003700278,9022003700104,Hildur Ottelinsgatan (Uppsala),Flogsta centrum (Uppsala),59.855766,17.607953,59.852083,17.587641,2551,-87,-0.3891402714932127
9022003779087/9022003700536,9022003779087,9022003700536,Kvarnbolund (Uppsala),Stenhagen (Uppsala),59.845552,17.553071,59.848034,17.564211,2536,-12,-0.2692307692307692
9022003700017/9022003700019,9022003700017,9022003700019,Barkspadevägen (Uppsala),Valsätraskolan (Uppsala),59.818051,17.633834,59.821549,17.628891,2533,10,0.18333333333333332
9022003700019/9022003700579,9022003700019,9022003700579,Valsätraskolan (Uppsala),Slädvägen (Uppsala),59.821549,17.628891,59.823037,17.626494,2533,22,0.8387096774193549
9022003700010/9022003700011,9022003700010,9022003700011,Solistvägen (Uppsala),Jenny Linds väg (Uppsala),59.80303,17.628682,59.804633,17.628377,2532,16,0.48484848484848486
9022003700009/9022003700010,9022003700009,9022003700010,Flöjtvägen (Uppsala),Solistvägen (Uppsala),59.803482,17.631754,59.80303,17.628682,2532,4,0.07272727272727272
9022003700013/9022003700014,9022003700013,9022003700014,Bröderna Berwalds väg (Uppsala),Gottsunda torg (Uppsala),59.810294,17.625407,59.811287,17.62694,2532,-3,-0.03896103896103896
9022003700012/9022003700013,9022003700012,9022003700013,Vackra Birgers väg (Uppsala),Bröderna Berwalds väg (Uppsala),59.807059,17.624963,59.810294,17.625407,2532,0,0
9022003700006/9022003700009,9022003700006,9022003700009,Cellovägen (Uppsala),Flöjtvägen (Uppsala),59.805633,17.637806,59.803482,17.631754,2532,-41,-0.3983050847457627
9022003700016/9022003700017,9022003700016,9022003700017,Linrepevägen (Uppsala),Barkspadevägen (Uppsala),59.813073,17.63415,59.818051,17.633834,2532,8,0.1111111111111111
9022003700011/9022003700012,9022003700011,9022003700012,Jenny Linds väg (Uppsala),Vackra Birgers väg (Uppsala),59.804633,17.628377,59.807059,17.624963,2532,-5,-0.08771929824561403
9022003700129/9022003700322,9022003700129,9022003700322,Ekonomikum (Uppsala),Dalgatan (Uppsala),59.860404,17.620003,59.863128,17.613171,2522,22,0.423728813559322
9022003779142/9022003780201,9022003779142,9022003780201,Jälla (Uppsala),Godegård (Uppsala),59.904062,17.716061,59.898092,17.708606,2521,5,0.09090909090909091
9022003779142/9022003779145,9022003779142,9022003779145,Jälla (Uppsala),Norrhagen (Uppsala),59.904062,17.716061,59.905941,17.718976,2509,5,0.18518518518518517
9022003700143/9022003700142,9022003700143,9022003700142,Tövädersgatan (Uppsala),Gränbyvägen (Uppsala),59.872,17.667847,59.873412,17.670873,2509,-5,-0.08333333333333333
9022003700541/9022003700143,9022003700541,9022003700143,Molngatan (Uppsala),Tövädersgatan (Uppsala),59.86984,17.66312,59.872,17.667847,2509,-27,-0.3010752688172043
9022003700142/9022003700141,9022003700142,9022003700141,Gränbyvägen (Uppsala),Gränbystaden (Uppsala),59.873412,17.670873,59.875371,17.675144,2509,-25,-0.25
9022003700322/9022003700129,9022003700322,9022003700129,Dalgatan (Uppsala),Ekonomikum (Uppsala),59.863128,17.613171,59.860404,17.620003,2493,-7,-0.05426356589147287
9022003700225/9022003700284,9022003700225,9022003700284,Campus Ultuna (Uppsala),Ultunaallén (Uppsala),59.815615,17.659121,59.813145,17.650874,2493,26,0.30303030303030304
9022003779145/9022003779142,9022003779145,9022003779142,Norrhagen (Uppsala),Jälla (Uppsala),59.905941,17.718976,59.904062,17.716061,2491,-6,-0.23076923076923078
9022003700278/9022003700129,9022003700278,9022003700129,Hildur Ottelinsgatan (Uppsala),Ekonomikum (Uppsala),59.855766,17.607953,59.860404,17.620003,2490,-42,-0.2568306010928962
9022003700284/9022003700016,9022003700284,9022003700016,Ultunaallén (Uppsala),Linrepevägen (Uppsala),59.813145,17.650874,59.813073,17.63415,2488,-23,-0.1464968152866242
9022003700129/9022003700278,9022003700129,9022003700278,Ekonomikum (Uppsala),Hildur Ottelinsgatan (Uppsala),59.860404,17.620003,59.855766,17.607953,2478,3,0.02631578947368421
9022003780201/9022003780202,9022003780201,9022003780202,Godegård (Uppsala),Skäve (Uppsala),59.898092,17.708606,59.890125,17.698234,2472,-11,-0.16176470588235295
9022003781224/9022003781221,9022003781224,9022003781221,Annelund (Enköping),Barkan (Enköping),59.645925,17.137809,59.646274,17.126402,2469,1,0.018518518518518517
9022003781221/9022003781051,9022003781221,9022003781051,Barkan (Enköping),Stenvreten (Enköping),59.646274,17.126402,59.645493,17.114703,2469,8,0.1794871794871795
9022003781051/9022003781216,9022003781051,9022003781216,Stenvreten (Enköping),Herrgården (Enköping),59.645493,17.114703,59.644577,17.103974,2469,-6,-0.08955223880597014
9022003779145/9022003779148,9022003779145,9022003779148,Norrhagen (Uppsala),Lindbacken (Uppsala),59.905941,17.718976,59.912363,17.738511,2461,-54,-0.4097222222222222
9022003779148/9022003779145,9022003779148,9022003779145,Lindbacken (Uppsala),Norrhagen (Uppsala),59.912363,17.738511,59.905941,17.718976,2442,7,0.08571428571428572
9022003780202/9022003700425,9022003780202,9022003700425,Skäve (Uppsala),Brillinge (Uppsala),59.890125,17.698234,59.878468,17.68214,2440,15,0.14893617021276595
9022003700425/9022003700141,9022003700425,9022003700141,Brillinge (Uppsala),Gränbystaden (Uppsala),59.878468,17.68214,59.875371,17.675144,2440,-28,-0.3333333333333333
9022003700284/9022003700225,9022003700284,9022003700225,Ultunaallén (Uppsala),Campus Ultuna (Uppsala),59.813145,17.650874,59.815615,17.659121,2438,-7,-0.05785123966942149
9022003780530/9022003780538,9022003780530,9022003780538,Grönviken (Lindbacken) (Uppsala),Hovgården (Uppsala),59.918888,17.758186,59.924962,17.777197,2425,0,0
9022003779148/9022003780530,9022003779148,9022003780530,Lindbacken (Uppsala),Grönviken (Lindbacken) (Uppsala),59.912363,17.738511,59.918888,17.758186,2425,16,0.25925925925925924
9022003700016/9022003700284,9022003700016,9022003700284,Linrepevägen (Uppsala),Ultunaallén (Uppsala),59.813073,17.63415,59.813145,17.650874,2422,-27,-0.1686046511627907
9022003700051/9022003700008,9022003700051,9022003700008,Körvelgatan (Uppsala),Jordgubbsgatan (Uppsala),59.86282,17.693987,59.864386,17.701842,2410,-67,-0.5151515151515151
9022003780201/9022003779142,9022003780201,9022003779142,Godegård (Uppsala),Jälla (Uppsala),59.898092,17.708606,59.904062,17.716061,2406,-19,-0.296875
9022003700052/9022003700051,9022003700052,9022003700051,Kummingatan (Uppsala),Körvelgatan (Uppsala),59.861295,17.689509,59.86282,17.693987,2404,7,0.18181818181818182
9022003780538/9022003780542,9022003780538,9022003780542,Hovgården (Uppsala),Grän vägskäl (Uppsala),59.924962,17.777197,59.931122,17.801034,2390,-5,-0.05952380952380952
9022003781172/9022003781166,9022003781172,9022003781166,Kommunhuset (Enköping),Lasarettet (Enköping),59.631853,17.072124,59.629217,17.068019,2373,0,0
9022003780538/9022003780530,9022003780538,9022003780530,Hovgården (Uppsala),Grönviken (Lindbacken) (Uppsala),59.924962,17.777197,59.918888,17.758186,2368,-1,-0.01694915254237288
9022003700051/9022003700052,9022003700051,9022003700052,Körvelgatan (Uppsala),Kummingatan (Uppsala),59.86282,17.693987,59.861295,17.689509,2363,0,0
9022003700008/9022003700051,9022003700008,9022003700051,Jordgubbsgatan (Uppsala),Körvelgatan (Uppsala),59.864386,17.701842,59.86282,17.693987,2363,-18,-0.1978021978021978
9022003780542/9022003780538,9022003780542,9022003780538,Grän vägskäl (Uppsala),Hovgården (Uppsala),59.931122,17.801034,59.924962,17.777197,2356,-4,-0.0449438202247191
9022003780530/9022003779148,9022003780530,9022003779148,Grönviken (Lindbacken) (Uppsala),Lindbacken (Uppsala),59.918888,17.758186,59.912363,17.738511,2350,-42,-0.36283185840707965
9022003730086/9022003780050,9022003730086,9022003780050,Knivsta Centralvägen,Knivsta station (Knivsta),59.73055,17.786192,59.727162,17.786418,2322,-23,-0.2191780821917808
9022003781051/9022003781221,9022003781051,9022003781221,Stenvreten (Enköping),Barkan (Enköping),59.645493,17.114703,59.646274,17.126402,2313,11,0.3055555555555556
9022003781216/9022003781051,9022003781216,9022003781051,Herrgården (Enköping),Stenvreten (Enköping),59.644577,17.103974,59.645493,17.114703,2313,22,0.4583333333333333
9022003781221/9022003781224,9022003781221,9022003781224,Barkan (Enköping),Annelund (Enköping),59.646274,17.126402,59.645925,17.137809,2313,3,0.08333333333333333
9022003730000/9022003730059,9022003730000,9022003730059,Ar-terminalen (Knivsta),Nova Park (Alsike) (Knivsta),59.740153,17.808994,59.740682,17.81429,2292,45,1.8461538461538463
9022003700204/9022003700203,9022003700204,9022003700203,Möllersvärdsgatan (Uppsala),Hanselligatan (Uppsala),59.851727,17.696839,59.852417,17.693808,2266,9,0.34782608695652173
9022003700130/9022003700278,9022003700130,9022003700278,Studentstaden (Uppsala),Hildur Ottelinsgatan (Uppsala),59.857678,17.613232,59.855766,17.607953,2265,9,0.13636363636363635
9022003700203/9022003700204,9022003700203,9022003700204,Hanselligatan (Uppsala),Möllersvärdsgatan (Uppsala),59.852417,17.693808,59.851727,17.696839,2260,9,0.3225806451612903
9022003700488/9022003700571,9022003700488,9022003700571,Stenhagens centrum (Uppsala),Kiselvägen (Uppsala),59.850824,17.558987,59.851801,17.55438,2246,-6,-0.07462686567164178
9022003700278/9022003700619,9022003700278,9022003700619,Hildur Ottelinsgatan (Uppsala),Uppsala Rickombergavägen,59.855766,17.607953,59.853975,17.599682,2246,0,0
9022003700619/9022003700104,9022003700619,9022003700104,Uppsala Rickombergavägen,Flogsta centrum (Uppsala),59.853975,17.599682,59.852083,17.587641,2246,0,0
9022003700129/9022003700130,9022003700129,9022003700130,Ekonomikum (Uppsala),Studentstaden (Uppsala),59.860404,17.620003,59.857678,17.613232,2246,-26,-0.2967032967032967
9022003700209/9022003700208,9022003700209,9022003700208,Herrhagens Byväg (Uppsala),Stenhagenskolan (Uppsala),59.855311,17.555814,59.857704,17.562829,2246,-57,-0.45454545454545453
9022003700602/9022003700129,9022003700602,9022003700129,Götgatan (Uppsala),Ekonomikum (Uppsala),59.864353,17.627252,59.860404,17.620003,2246,18,0.21839080459770116
9022003700172/9022003700602,9022003700172,9022003700602,Skolgatan (Uppsala),Götgatan (Uppsala),59.863106,17.635574,59.864353,17.627252,2244,44,0.4673913043478261
9022003700571/9022003700209,9022003700571,9022003700209,Kiselvägen (Uppsala),Herrhagens Byväg (Uppsala),59.851801,17.55438,59.855311,17.555814,2228,-64,-0.44871794871794873
9022003700289/9022003700288,9022003700289,9022003700288,Sunnerstabacken (Uppsala),Ekolnsvägen norra (Uppsala),59.790371,17.658291,59.793422,17.657071,2207,-6,-0.13333333333333333
9022003700288/9022003700287,9022003700288,9022003700287,Ekolnsvägen norra (Uppsala),Lärkvägen (Uppsala),59.793422,17.657071,59.796862,17.655747,2207,-25,-0.2119205298013245
9022003700278/9022003700130,9022003700278,9022003700130,Hildur Ottelinsgatan (Uppsala),Studentstaden (Uppsala),59.855766,17.607953,59.857678,17.613232,2187,11,0.22580645161290322
9022003700129/9022003700602,9022003700129,9022003700602,Ekonomikum (Uppsala),Götgatan (Uppsala),59.860404,17.620003,59.864353,17.627252,2172,-12,-0.11320754716981132
9022003700602/9022003700172,9022003700602,9022003700172,Götgatan (Uppsala),Skolgatan (Uppsala),59.864353,17.627252,59.863106,17.635574,2172,30,0.4915254237288136
9022003700130/9022003700129,9022003700130,9022003700129,Studentstaden (Uppsala),Ekonomikum (Uppsala),59.857678,17.613232,59.860404,17.620003,2171,-17,-0.14516129032258066
9022003700104/9022003700619,9022003700104,9022003700619,Flogsta centrum (Uppsala),Uppsala Rickombergavägen,59.852083,17.587641,59.853975,17.599682,2171,18,0.24615384615384617
9022003700619/9022003700278,9022003700619,9022003700278,Uppsala Rickombergavägen,Hildur Ottelinsgatan (Uppsala),59.853975,17.599682,59.855766,17.607953,2171,-24,-0.2601626016260163
9022003700209/9022003700571,9022003700209,9022003700571,Herrhagens Byväg (Uppsala),Kiselvägen (Uppsala),59.855311,17.555814,59.851801,17.55438,2170,-5,-0.06666666666666667
9022003700488/9022003700212,9022003700488,9022003700212,Stenhagens centrum (Uppsala),Stenröset (Uppsala),59.850824,17.558987,59.852678,17.564063,2170,42,0.7037037037037037
9022003700208/9022003700209,9022003700208,9022003700209,Stenhagenskolan (Uppsala),Herrhagens Byväg (Uppsala),59.857704,17.562829,59.855311,17.555814,2170,0,0
9022003700571/9022003700488,9022003700571,9022003700488,Kiselvägen (Uppsala),Stenhagens centrum (Uppsala),59.851801,17.55438,59.850824,17.558987,2170,-12,-0.16417910447761194
9022003700072/9022003700073,9022003700072,9022003700073,Täljstenen (Uppsala),Kvickstensvägen (Uppsala),59.839678,17.613791,59.835991,17.612253,2163,20,0.7142857142857143
9022003700081/9022003700005,9022003700081,9022003700005,August Södermans väg (Uppsala),Bandstolsvägen (Uppsala),59.815627,17.619529,59.813615,17.622219,2163,-4,-0.0784313725490196
9022003700078/9022003700080,9022003700078,9022003700080,Björklundavägen (Uppsala),Spinnrocksvägen (Uppsala),59.821073,17.61658,59.818971,17.621868,2163,-12,-0.0958904109589041
9022003700073/9022003700074,9022003700073,9022003700074,Kvickstensvägen (Uppsala),Norra Parkvägen (Uppsala),59.835991,17.612253,59.833082,17.61486,2163,6,0.2222222222222222
9022003700074/9022003700076,9022003700074,9022003700076,Norra Parkvägen (Uppsala),Malma Bergsväg (Uppsala),59.833082,17.61486,59.830161,17.617056,2163,-6,-0.07407407407407407
9022003700014/9022003700087,9022003700014,9022003700087,Gottsunda torg (Uppsala),Fiolbacken (Uppsala),59.811287,17.62694,59.809365,17.6322,2163,0,0
9022003700087/9022003700004,9022003700087,9022003700004,Fiolbacken (Uppsala),Gottsunda Simhall (Uppsala),59.809365,17.6322,59.808623,17.631304,2163,-40,-0.5342465753424658
9022003700076/9022003700077,9022003700076,9022003700077,Malma Bergsväg (Uppsala),Svamptorget (Uppsala),59.830161,17.617056,59.826146,17.618479,2163,6,0.13953488372093023
9022003700005/9022003700014,9022003700005,9022003700014,Bandstolsvägen (Uppsala),Gottsunda torg (Uppsala),59.813615,17.622219,59.811287,17.62694,2163,2,0.027777777777777776
9022003700636/9022003700200,9022003700636,9022003700200,Uppsala Årsta torg,Gröna gatan (Uppsala),59.865787,17.681747,59.867249,17.677473,2161,21,0.27631578947368424
9022003700200/9022003700057,9022003700200,9022003700057,Gröna gatan (Uppsala),Apelgatan (Uppsala),59.867249,17.677473,59.865955,17.672473,2161,28,0.5490196078431373
9022003700058/9022003700146,9022003700058,9022003700146,Byggmästargatan (Uppsala),Österängsgatan norra (Uppsala),59.866159,17.668842,59.866155,17.655148,2161,28,0.15254237288135594
9022003700080/9022003700081,9022003700080,9022003700081,Spinnrocksvägen (Uppsala),August Södermans väg (Uppsala),59.818971,17.621868,59.815627,17.619529,2160,-1,-0.0125
9022003700077/9022003700078,9022003700077,9022003700078,Svamptorget (Uppsala),Björklundavägen (Uppsala),59.826146,17.618479,59.821073,17.61658,2157,-11,-0.18032786885245902
9022003700338/9022003700367,9022003700338,9022003700367,Lapplandsresan (Uppsala),Nämndemansvägen (Uppsala),59.816257,17.699161,59.820876,17.696998,2154,41,0.6825396825396826
9022003700340/9022003700339,9022003700340,9022003700339,Daneport (Uppsala),Ölandsresan (Uppsala),59.810996,17.70159,59.814161,17.7025,2154,-2,-0.022988505747126436
9022003700446/9022003700342,9022003700446,9022003700342,Smålandsvägen (Uppsala),Gotlandsresan (Uppsala),59.806097,17.69142,59.808874,17.696817,2154,-5,-0.058823529411764705
9022003700342/9022003700340,9022003700342,9022003700340,Gotlandsresan (Uppsala),Daneport (Uppsala),59.808874,17.696817,59.810996,17.70159,2154,0,0
9022003700339/9022003700338,9022003700339,9022003700338,Ölandsresan (Uppsala),Lapplandsresan (Uppsala),59.814161,17.7025,59.816257,17.699161,2154,16,0.37777777777777777
9022003700287/9022003700288,9022003700287,9022003700288,Lärkvägen (Uppsala),Ekolnsvägen norra (Uppsala),59.796862,17.655747,59.793422,17.657071,2129,10,0.2727272727272727
9022003700288/9022003700289,9022003700288,9022003700289,Ekolnsvägen norra (Uppsala),Sunnerstabacken (Uppsala),59.793422,17.657071,59.790371,17.658291,2129,-2,-0.037037037037037035
9022003700078/9022003700077,9022003700078,9022003700077,Björklundavägen (Uppsala),Svamptorget (Uppsala),59.821073,17.61658,59.826146,17.618479,2116,9,0.13793103448275862
9022003700073/9022003700072,9022003700073,9022003700072,Kvickstensvägen (Uppsala),Täljstenen (Uppsala),59.835991,17.612253,59.839678,17.613791,2116,-7,-0.08139534883720931
9022003700077/9022003700076,9022003700077,9022003700076,Svamptorget (Uppsala),Malma Bergsväg (Uppsala),59.826146,17.618479,59.830161,17.617056,2116,17,0.3333333333333333
9022003700200/9022003700636,9022003700200,9022003700636,Gröna gatan (Uppsala),Uppsala Årsta torg,59.867249,17.677473,59.865787,17.681747,2116,15,0.15384615384615385
9022003700074/9022003700073,9022003700074,9022003700073,Norra Parkvägen (Uppsala),Kvickstensvägen (Uppsala),59.833082,17.61486,59.835991,17.612253,2116,6,0.14285714285714285
9022003700146/9022003700058,9022003700146,9022003700058,Österängsgatan norra (Uppsala),Byggmästargatan (Uppsala),59.866155,17.655148,59.866159,17.668842,2116,-10,-0.053763440860215055
9022003700057/9022003700200,9022003700057,9022003700200,Apelgatan (Uppsala),Gröna gatan (Uppsala),59.865955,17.672473,59.867249,17.677473,2116,1,0.016666666666666666
9022003781002/9022003781172,9022003781002,9022003781172,Gustav Adolfs plan (Enköping),Kommunhuset (Enköping),59.636758,17.075465,59.631853,17.072124,2114,-6,-0.03821656050955414
9022003700081/9022003700080,9022003700081,9022003700080,August Södermans väg (Uppsala),Spinnrocksvägen (Uppsala),59.815627,17.619529,59.818971,17.621868,2112,5,0.07142857142857142
9022003700004/9022003700087,9022003700004,9022003700087,Gottsunda Simhall (Uppsala),Fiolbacken (Uppsala),59.808623,17.631304,59.809365,17.6322,2112,10,0.36666666666666664
9022003700087/9022003700014,9022003700087,9022003700014,Fiolbacken (Uppsala),Gottsunda torg (Uppsala),59.809365,17.6322,59.811287,17.62694,2112,4,0.03184713375796178
9022003700005/9022003700081,9022003700005,9022003700081,Bandstolsvägen (Uppsala),August Södermans väg (Uppsala),59.813615,17.622219,59.815627,17.619529,2112,15,0.38095238095238093
9022003700014/9022003700005,9022003700014,9022003700005,Gottsunda torg (Uppsala),Bandstolsvägen (Uppsala),59.811287,17.62694,59.813615,17.622219,2112,22,0.3225806451612903
9022003700080/9022003700078,9022003700080,9022003700078,Spinnrocksvägen (Uppsala),Björklundavägen (Uppsala),59.818971,17.621868,59.821073,17.61658,2112,-21,-0.17857142857142858
9022003781226/9022003781410,9022003781226,9022003781410,Varghällar (Enköping),Enköpings företagspark (Enköping),59.650515,17.158637,59.649555,17.149872,2106,1,0.058823529411764705
9022003781233/9022003781232,9022003781233,9022003781232,Sneby (Enköping),Blåhäll (Enköping),59.656964,17.206192,59.655565,17.190878,2106,1,0.025
9022003781410/9022003781224,9022003781410,9022003781224,Enköpings företagspark (Enköping),Annelund (Enköping),59.649555,17.149872,59.645925,17.137809,2106,-1,-0.017857142857142856
9022003781229/9022003781226,9022003781229,9022003781226,Östertorp (Enköping),Varghällar (Enköping),59.653015,17.170303,59.650515,17.158637,2106,1,0.023255813953488372
9022003781238/9022003781237,9022003781238,9022003781237,Skolsta (Enköping),Vällinge (Enköping),59.660698,17.243607,59.658907,17.220129,2106,21,0.36666666666666664
9022003700367/9022003700338,9022003700367,9022003700338,Nämndemansvägen (Uppsala),Lapplandsresan (Uppsala),59.820876,17.696998,59.816257,17.699161,2102,0,0
9022003700342/9022003700446,9022003700342,9022003700446,Gotlandsresan (Uppsala),Smålandsvägen (Uppsala),59.808874,17.696817,59.806097,17.69142,2102,-49,-0.3968253968253968
9022003700338/9022003700339,9022003700338,9022003700339,Lapplandsresan (Uppsala),Ölandsresan (Uppsala),59.816257,17.699161,59.814161,17.7025,2102,0,0
9022003781232/9022003781229,9022003781232,9022003781229,Blåhäll (Enköping),Östertorp (Enköping),59.655565,17.190878,59.653015,17.170303,2100,1,0.020833333333333332
9022003700339/9022003700340,9022003700339,9022003700340,Ölandsresan (Uppsala),Daneport (Uppsala),59.814161,17.7025,59.810996,17.70159,2099,-16,-0.16326530612244897
9022003781237/9022003781233,9022003781237,9022003781233,Vällinge (Enköping),Sneby (Enköping),59.658907,17.220129,59.656964,17.206192,2099,0,0
9022003700340/9022003700342,9022003700340,9022003700342,Daneport (Uppsala),Gotlandsresan (Uppsala),59.810996,17.70159,59.808874,17.696817,2099,-15,-0.18072289156626506
9022003781172/9022003781002,9022003781172,9022003781002,Kommunhuset (Enköping),Gustav Adolfs plan (Enköping),59.631853,17.072124,59.636758,17.075465,2096,41,0.3228346456692913
9022003700076/9022003700074,9022003700076,9022003700074,Malma Bergsväg (Uppsala),Norra Parkvägen (Uppsala),59.830161,17.617056,59.833082,17.61486,2094,8,0.21428571428571427
9022003700277/9022003700141,9022003700277,9022003700141,Kamomillgatan (Uppsala),Gränbystaden (Uppsala),59.872691,17.682422,59.875371,17.675144,2090,2,0.013513513513513514
9022003700275/9022003700277,9022003700275,9022003700277,Timjansgatan (Uppsala),Kamomillgatan (Uppsala),59.87089,17.690998,59.872691,17.682422,2090,8,0.0782608695652174
9022003700414/9022003700579,9022003700414,9022003700579,Martallsvägen (Uppsala),Slädvägen (Uppsala),59.819664,17.616504,59.823037,17.626494,2075,-15,-0.18072289156626506
9022003781410/9022003781226,9022003781410,9022003781226,Enköpings företagspark (Enköping),Varghällar (Enköping),59.649555,17.149872,59.650515,17.158637,2051,6,0.42857142857142855
9022003781224/9022003781410,9022003781224,9022003781410,Annelund (Enköping),Enköpings företagspark (Enköping),59.645925,17.137809,59.649555,17.149872,2051,7,0.13725490196078433
9022003781237/9022003781238,9022003781237,9022003781238,Vällinge (Enköping),Skolsta (Enköping),59.658907,17.220129,59.660698,17.243607,2051,-44,-0.39285714285714285
9022003781233/9022003781237,9022003781233,9022003781237,Sneby (Enköping),Vällinge (Enköping),59.656964,17.206192,59.658907,17.220129,2051,4,0.13333333333333333
9022003781232/9022003781233,9022003781232,9022003781233,Blåhäll (Enköping),Sneby (Enköping),59.655565,17.190878,59.656964,17.206192,2051,4,0.13333333333333333
9022003781229/9022003781232,9022003781229,9022003781232,Östertorp (Enköping),Blåhäll (Enköping),59.653015,17.170303,59.655565,17.190878,2051,8,0.16666666666666666
9022003781226/9022003781229,9022003781226,9022003781229,Varghällar (Enköping),Östertorp (Enköping),59.650515,17.158637,59.653015,17.170303,2046,3,0.08333333333333333
9022003700411/9022003700412,9022003700411,9022003700412,Gottsundavägen (Uppsala),Djurgårdsvägen (Uppsala),59.808987,17.608172,59.813879,17.61086,2043,-9,-0.13846153846153847
9022003700413/9022003700414,9022003700413,9022003700414,Källbovägen (Uppsala),Martallsvägen (Uppsala),59.816422,17.612014,59.819664,17.616504,2043,-24,-0.23809523809523808
9022003700412/9022003700413,9022003700412,9022003700413,Djurgårdsvägen (Uppsala),Källbovägen (Uppsala),59.813879,17.61086,59.816422,17.612014,2043,4,0.11764705882352941
9022003705050/9022003705052,9022003705050,9022003705052,Lilla Hagalund (Bålsta) (Håbo),Medborgarhuset (Bålsta) (Håbo),59.572541,17.521592,59.576376,17.511858,2027,12,0.15789473684210525
9022003700117/9022003700118,9022003700117,9022003700118,Valhalls väg (Uppsala),Huges väg (Uppsala),59.892529,17.642552,59.892019,17.647562,2020,1,0.025
9022003700126/9022003700581,9022003700126,9022003700581,Portalgatan (Uppsala),Väderkvarnsgatan (Uppsala),59.867586,17.63948,59.864202,17.643918,2020,12,0.12941176470588237
9022003700123/9022003700124,9022003700123,9022003700124,Heidenstamstorg (Uppsala),Kantorsgatan (Uppsala),59.877638,17.645534,59.874129,17.640858,2020,20,0.19387755102040816
9022003700607/9022003700115,9022003700607,9022003700115,Kungshögarna (Uppsala),Regins väg (Uppsala),59.897444,17.635157,59.894743,17.636974,2020,0,0
9022003700124/9022003700125,9022003700124,9022003700125,Kantorsgatan (Uppsala),Djäknegatan (Uppsala),59.874129,17.640858,59.87136,17.639224,2020,16,0.21052631578947367
9022003700119/9022003700121,9022003700119,9022003700121,Topeliusgatan (Uppsala),Värnlundsgatan (Uppsala),59.889566,17.64639,59.885986,17.643012,2020,8,0.13043478260869565
9022003700121/9022003700122,9022003700121,9022003700122,Värnlundsgatan (Uppsala),Ferlinsgatan (Uppsala),59.885986,17.643012,59.881781,17.645835,2020,10,0.1267605633802817
9022003700118/9022003700119,9022003700118,9022003700119,Huges väg (Uppsala),Topeliusgatan (Uppsala),59.892019,17.647562,59.889566,17.64639,2020,2,0.030303030303030304
9022003700122/9022003700123,9022003700122,9022003700123,Ferlinsgatan (Uppsala),Heidenstamstorg (Uppsala),59.881781,17.645835,59.877638,17.645534,2020,-36,-0.29365079365079366
9022003700115/9022003700117,9022003700115,9022003700117,Regins väg (Uppsala),Valhalls väg (Uppsala),59.894743,17.636974,59.892529,17.642552,2020,0,0
9022003700252/9022003700251,9022003700252,9022003700251,Vittulsbergsvägen (Uppsala),Bredåkers gård (Uppsala),59.905647,17.643133,59.912144,17.643313,2005,-17,-0.265625
9022003700277/9022003700275,9022003700277,9022003700275,Kamomillgatan (Uppsala),Timjansgatan (Uppsala),59.872691,17.682422,59.87089,17.690998,1998,-33,-0.2920353982300885
9022003700141/9022003700277,9022003700141,9022003700277,Gränbystaden (Uppsala),Kamomillgatan (Uppsala),59.875371,17.675144,59.872691,17.682422,1998,17,0.13385826771653545
9022003700122/9022003700121,9022003700122,9022003700121,Ferlinsgatan (Uppsala),Värnlundsgatan (Uppsala),59.881781,17.645835,59.885986,17.643012,1994,-17,-0.15384615384615385
9022003700117/9022003700115,9022003700117,9022003700115,Valhalls väg (Uppsala),Regins väg (Uppsala),59.892529,17.642552,59.894743,17.636974,1994,-13,-0.14736842105263157
9022003700118/9022003700117,9022003700118,9022003700117,Huges väg (Uppsala),Valhalls väg (Uppsala),59.892019,17.647562,59.892529,17.642552,1994,-7,-0.14545454545454545
9022003700123/9022003700122,9022003700123,9022003700122,Heidenstamstorg (Uppsala),Ferlinsgatan (Uppsala),59.877638,17.645534,59.881781,17.645835,1994,-6,-0.0821917808219178
9022003700124/9022003700123,9022003700124,9022003700123,Kantorsgatan (Uppsala),Heidenstamstorg (Uppsala),59.874129,17.640858,59.877638,17.645534,1994,-61,-0.5221238938053098
9022003700119/9022003700118,9022003700119,9022003700118,Topeliusgatan (Uppsala),Huges väg (Uppsala),59.889566,17.64639,59.892019,17.647562,1994,7,0.10714285714285714
9022003700581/9022003700126,9022003700581,9022003700126,Väderkvarnsgatan (Uppsala),Portalgatan (Uppsala),59.864202,17.643918,59.867586,17.63948,1992,7,0.1111111111111111
9022003700125/9022003700124,9022003700125,9022003700124,Djäknegatan (Uppsala),Kantorsgatan (Uppsala),59.87136,17.639224,59.874129,17.640858,1991,40,0.43010752688172044
9022003700115/9022003700607,9022003700115,9022003700607,Regins väg (Uppsala),Kungshögarna (Uppsala),59.894743,17.636974,59.897444,17.635157,1991,-59,-0.5043478260869565
9022003700249/9022003700248,9022003700249,9022003700248,Enstalund (Uppsala),Segersberg (Uppsala),59.924818,17.641617,59.930787,17.641035,1990,-4,-0.125
9022003700250/9022003700249,9022003700250,9022003700249,Ensta (Uppsala),Enstalund (Uppsala),59.919881,17.642185,59.924818,17.641617,1990,-2,-0.0625
9022003700248/9022003700247,9022003700248,9022003700247,Segersberg (Uppsala),Hamra (Uppsala),59.930787,17.641035,59.935115,17.645496,1990,-2,-0.05128205128205128
9022003700247/9022003700558,9022003700247,9022003700558,Hamra (Uppsala),Fullerö (Uppsala),59.935115,17.645496,59.937454,17.648417,1990,2,0.07407407407407407
9022003700558/9022003700244,9022003700558,9022003700244,Fullerö (Uppsala),Trekanten (Uppsala),59.937454,17.648417,59.94851,17.662203,1984,0,0
9022003700121/9022003700119,9022003700121,9022003700119,Värnlundsgatan (Uppsala),Topeliusgatan (Uppsala),59.885986,17.643012,59.889566,17.64639,1978,-13,-0.1917808219178082
9022003700208/9022003700208,9022003700208,9022003700208,Stenhagenskolan (Uppsala),Stenhagenskolan (Uppsala),59.857704,17.562829,59.857704,17.562829,1976,-27,-0.225
9022003700251/9022003700250,9022003700251,9022003700250,Bredåkers gård (Uppsala),Ensta (Uppsala),59.912144,17.643313,59.919881,17.642185,1974,-5,-0.10204081632653061
9022003700349/9022003700347,9022003700349,9022003700347,Moskén (Uppsala),Sandels gata (Uppsala),59.873076,17.637193,59.883983,17.635381,1974,-10,-0.07874015748031496
9022003700513/9022003700513,9022003700513,9022003700513,Uppsala Business Park västra (Uppsala),Uppsala Business Park västra (Uppsala),59.850242,17.700823,59.850242,17.700823,1970,-52,-0.43333333333333335
9022003700579/9022003700414,9022003700579,9022003700414,Slädvägen (Uppsala),Martallsvägen (Uppsala),59.823037,17.626494,59.819664,17.616504,1967,27,0.5660377358490566
9022003700413/9022003700412,9022003700413,9022003700412,Källbovägen (Uppsala),Djurgårdsvägen (Uppsala),59.816422,17.612014,59.813879,17.61086,1967,7,0.22580645161290322
9022003700414/9022003700413,9022003700414,9022003700413,Martallsvägen (Uppsala),Källbovägen (Uppsala),59.819664,17.616504,59.816422,17.612014,1967,16,0.4482758620689655
9022003700412/9022003700411,9022003700412,9022003700411,Djurgårdsvägen (Uppsala),Gottsundavägen (Uppsala),59.813879,17.61086,59.808987,17.608172,1967,-34,-0.336283185840708
9022003700162/9022003700532,9022003700162,9022003700532,Svartbäckens vårdcentral (Uppsala),Auroragatan (Uppsala),59.869091,17.628082,59.871149,17.630462,1958,31,1.0769230769230769
9022003700532/9022003700349,9022003700532,9022003700349,Auroragatan (Uppsala),Moskén (Uppsala),59.871149,17.630462,59.873076,17.637193,1958,2,0.0196078431372549
9022003700114/9022003700252,9022003700114,9022003700252,Gamla Uppsala (Uppsala),Vittulsbergsvägen (Uppsala),59.896589,17.636629,59.905647,17.643133,1958,-12,-0.14285714285714285
9022003700347/9022003700345,9022003700347,9022003700345,Sandels gata (Uppsala),Bågspännarvägen (Uppsala),59.883983,17.635381,59.890638,17.638445,1958,-1,-0.012048192771084338
9022003700558/9022003700247,9022003700558,9022003700247,Fullerö (Uppsala),Hamra (Uppsala),59.937454,17.648417,59.935115,17.645496,1938,3,0.13636363636363635
9022003700247/9022003700248,9022003700247,9022003700248,Hamra (Uppsala),Segersberg (Uppsala),59.935115,17.645496,59.930787,17.641035,1938,-3,-0.08823529411764706
9022003700244/9022003700558,9022003700244,9022003700558,Trekanten (Uppsala),Fullerö (Uppsala),59.94851,17.662203,59.937454,17.648417,1938,5,0.045871559633027525
9022003700248/9022003700249,9022003700248,9022003700249,Segersberg (Uppsala),Enstalund (Uppsala),59.930787,17.641035,59.924818,17.641617,1938,-11,-0.25
9022003700249/9022003700250,9022003700249,9022003700250,Enstalund (Uppsala),Ensta (Uppsala),59.924818,17.641617,59.919881,17.642185,1938,-7,-0.1891891891891892
9022003700250/9022003700251,9022003700250,9022003700251,Ensta (Uppsala),Bredåkers gård (Uppsala),59.919881,17.642185,59.912144,17.643313,1938,-9,-0.14814814814814814
9022003700345/9022003700347,9022003700345,9022003700347,Bågspännarvägen (Uppsala),Sandels gata (Uppsala),59.890638,17.638445,59.883983,17.635381,1923,-17,-0.1568627450980392
9022003700532/9022003700162,9022003700532,9022003700162,Auroragatan (Uppsala),Svartbäckens vårdcentral (Uppsala),59.871149,17.630462,59.869091,17.628082,1923,10,0.11904761904761904
9022003700349/9022003700532,9022003700349,9022003700532,Moskén (Uppsala),Auroragatan (Uppsala),59.873076,17.637193,59.871149,17.630462,1923,-2,-0.024390243902439025
9022003700347/9022003700349,9022003700347,9022003700349,Sandels gata (Uppsala),Moskén (Uppsala),59.883983,17.635381,59.873076,17.637193,1923,-19,-0.11940298507462686
9022003700251/9022003700252,9022003700251,9022003700252,Bredåkers gård (Uppsala),Vittulsbergsvägen (Uppsala),59.912144,17.643313,59.905647,17.643133,1922,-5,-0.10416666666666667
9022003700252/9022003700114,9022003700252,9022003700114,Vittulsbergsvägen (Uppsala),Gamla Uppsala (Uppsala),59.905647,17.643133,59.896589,17.636629,1922,22,0.275
9022003191159/9022003191042,9022003191159,9022003191042,Versailles (Arlanda) (Sigtuna),Terminal 5 (Arlanda) (Sigtuna),59.648991,17.935553,59.651623,17.933804,1904,-9,-0.075
9022003700450/9022003700052,9022003700450,9022003700052,Mistelgatan södra (Uppsala),Kummingatan (Uppsala),59.85862,17.680665,59.861295,17.689509,1899,24,0.34146341463414637
9022003700443/9022003700550,9022003700443,9022003700550,Solrosgatan (Uppsala),Bolandsparken (Uppsala),59.857708,17.658856,59.858065,17.673619,1899,-10,-0.08547008547008547
9022003700445/9022003700444,9022003700445,9022003700444,Hjortrongatan (Uppsala),Klarbärsgatan (Uppsala),59.86317,17.708985,59.860323,17.707805,1899,-46,-0.44554455445544555
9022003700107/9022003700106,9022003700107,9022003700106,Ihres väg (Uppsala),Uppsala Hamberg,59.847179,17.583151,59.849238,17.580245,1899,-40,-0.39622641509433965
9022003700094/9022003700110,9022003700094,9022003700110,Kyrkogårdsgatan (Uppsala),Saluhallen (Uppsala),59.857313,17.62601,59.859532,17.632414,1899,23,0.24444444444444444
9022003700491/9022003700095,9022003700491,9022003700095,Tartugatan (Uppsala),Kungsgärdets vårdcentral (Uppsala),59.852335,17.613906,59.85601,17.621513,1899,-28,-0.19858156028368795
9022003700100/9022003700491,9022003700100,9022003700491,Nordengatan (Uppsala),Tartugatan (Uppsala),59.850913,17.606977,59.852335,17.613906,1899,13,0.14102564102564102
9022003700444/9022003700441,9022003700444,9022003700441,Klarbärsgatan (Uppsala),Södra Slavstavägen (Uppsala),59.860323,17.707805,59.859064,17.706109,1899,-44,-0.4673913043478261
9022003700008/9022003700445,9022003700008,9022003700445,Jordgubbsgatan (Uppsala),Hjortrongatan (Uppsala),59.864386,17.701842,59.86317,17.708985,1899,-31,-0.2803738317757009
9022003700617/9022003700600,9022003700617,9022003700600,Uppsala Regionens hus,Uppsala Centralstationen (Uppsala),59.860449,17.64587,59.858683,17.64372,1899,54,1.1555555555555554
9022003700600/9022003700443,9022003700600,9022003700443,Uppsala Centralstationen (Uppsala),Solrosgatan (Uppsala),59.858683,17.64372,59.857708,17.658856,1899,57,0.42028985507246375
9022003700101/9022003700100,9022003700101,9022003700100,Ekebyhus (Uppsala),Nordengatan (Uppsala),59.851643,17.603465,59.850913,17.606977,1899,16,0.1724137931034483
9022003700591/9022003700032,9022003700591,9022003700032,Stadsbiblioteket (Uppsala),Klostergatan (Uppsala),59.861031,17.635638,59.861158,17.636824,1899,25,0.2840909090909091
9022003700109/9022003700107,9022003700109,9022003700107,Säves väg (Uppsala),Ihres väg (Uppsala),59.846119,17.595102,59.847179,17.583151,1899,26,0.26666666666666666
9022003700550/9022003700450,9022003700550,9022003700450,Bolandsparken (Uppsala),Mistelgatan södra (Uppsala),59.858065,17.673619,59.85862,17.680665,1899,32,0.6595744680851063
9022003700106/9022003700104,9022003700106,9022003700104,Uppsala Hamberg,Flogsta centrum (Uppsala),59.849238,17.580245,59.852083,17.587641,1899,-23,-0.2696629213483146
9022003700032/9022003700617,9022003700032,9022003700617,Klostergatan (Uppsala),Uppsala Regionens hus,59.861158,17.636824,59.860449,17.64587,1899,-101,-0.35313531353135313
9022003191719/9022003191718,9022003191719,9022003191718,Stockholm Odenplan,Stockholm city,59.343362,18.045933,59.331156,18.059048,1894,0,0
9022003700095/9022003700094,9022003700095,9022003700094,Kungsgärdets vårdcentral (Uppsala),Kyrkogårdsgatan (Uppsala),59.85601,17.621513,59.857313,17.62601,1894,-16,-0.17525773195876287
9022003782076/9022003782004,9022003782076,9022003782004,Vårdcentrum (Östhammar),Östhammar busstation,60.259529,18.364715,60.258356,18.369683,1888,-22,-0.13675213675213677
9022003700110/9022003700094,9022003700110,9022003700094,Saluhallen (Uppsala),Kyrkogårdsgatan (Uppsala),59.859532,17.632414,59.857313,17.62601,1873,12,0.10833333333333334
9022003700491/9022003700100,9022003700491,9022003700100,Tartugatan (Uppsala),Nordengatan (Uppsala),59.852335,17.613906,59.850913,17.606977,1873,9,0.10101010101010101
9022003700095/9022003700491,9022003700095,9022003700491,Kungsgärdets vårdcentral (Uppsala),Tartugatan (Uppsala),59.85601,17.621513,59.852335,17.613906,1873,23,0.21551724137931033
9022003700094/9022003700095,9022003700094,9022003700095,Kyrkogårdsgatan (Uppsala),Kungsgärdets vårdcentral (Uppsala),59.857313,17.62601,59.85601,17.621513,1873,-47,-0.36363636363636365
9022003700100/9022003700101,9022003700100,9022003700101,Nordengatan (Uppsala),Ekebyhus (Uppsala),59.850913,17.606977,59.851643,17.603465,1873,34,0.4492753623188406
9022003700622/9022003700591,9022003700622,9022003700591,Uppsala Stadshuset,Stadsbiblioteket (Uppsala),59.86072,17.643797,59.861031,17.635638,1873,61,0.5217391304347826
9022003705052/9022003705054,9022003705052,9022003705054,Medborgarhuset (Bålsta) (Håbo),Gransäterskolan (Bålsta) (Håbo),59.576376,17.511858,59.582287,17.508174,1864,7,0.109375
9022003705003/9022003705050,9022003705003,9022003705050,Bålsta station,Lilla Hagalund (Bålsta) (Håbo),59.567475,17.532712,59.572541,17.521592,1864,79,0.8
9022003700546/9022003700547,9022003700546,9022003700547,Rapsgatan (Uppsala),Stålgatan södra (Uppsala),59.843842,17.688827,59.845717,17.67382,1851,-4,-0.041666666666666664
9022003191718/9022003191719,9022003191718,9022003191719,Stockholm city,Stockholm Odenplan,59.331156,18.059048,59.343362,18.045933,1842,86,0.7166666666666667
9022003700441/9022003700444,9022003700441,9022003700444,Södra Slavstavägen (Uppsala),Klarbärsgatan (Uppsala),59.859064,17.706109,59.860323,17.707805,1838,15,0.6
9022003700450/9022003700550,9022003700450,9022003700550,Mistelgatan södra (Uppsala),Bolandsparken (Uppsala),59.85862,17.680665,59.858065,17.673619,1838,15,0.21621621621621623
9022003700104/9022003700106,9022003700104,9022003700106,Flogsta centrum (Uppsala),Uppsala Hamberg,59.852083,17.587641,59.849238,17.580245,1838,-31,-0.3373493975903614
9022003700106/9022003700107,9022003700106,9022003700107,Uppsala Hamberg,Ihres väg (Uppsala),59.849238,17.580245,59.847179,17.583151,1838,-78,-0.5333333333333333
9022003700444/9022003700445,9022003700444,9022003700445,Klarbärsgatan (Uppsala),Hjortrongatan (Uppsala),59.860323,17.707805,59.86317,17.708985,1838,-8,-0.09195402298850575
9022003700443/9022003700600,9022003700443,9022003700600,Solrosgatan (Uppsala),Uppsala Centralstationen (Uppsala),59.857708,17.658856,59.858683,17.64372,1838,69,0.6732673267326733
9022003700052/9022003700450,9022003700052,9022003700450,Kummingatan (Uppsala),Mistelgatan södra (Uppsala),59.861295,17.689509,59.85862,17.680665,1838,-4,-0.03278688524590164
9022003700550/9022003700443,9022003700550,9022003700443,Bolandsparken (Uppsala),Solrosgatan (Uppsala),59.858065,17.673619,59.857708,17.658856,1838,-73,-0.425531914893617
9022003700107/9022003700109,9022003700107,9022003700109,Ihres väg (Uppsala),Säves väg (Uppsala),59.847179,17.583151,59.846119,17.595102,1835,-63,-0.41040462427745666
9022003700445/9022003700008,9022003700445,9022003700008,Hjortrongatan (Uppsala),Jordgubbsgatan (Uppsala),59.86317,17.708985,59.864386,17.701842,1832,-33,-0.2578125
9022003700362/9022003700361,9022003700362,9022003700361,Backmovägen (Uppsala),Hultvägen (Uppsala),59.815895,17.717948,59.818239,17.714855,1827,2,0.05263157894736842
9022003700388/9022003700389,9022003700388,9022003700389,Hammarby kyrkogård (Uppsala),Genetikvägen (Uppsala),59.82776,17.644513,59.816416,17.648737,1824,-24,-0.18705035971223022
9022003700547/9022003700546,9022003700547,9022003700546,Stålgatan södra (Uppsala),Rapsgatan (Uppsala),59.845717,17.67382,59.843842,17.688827,1822,13,0.2826086956521739
9022003700567/9022003700613,9022003700567,9022003700613,Nyby köpcentrum (Uppsala),Uppsala Takpannegatan,59.886218,17.661694,59.884258,17.670212,1819,9,0.10101010101010101
9022003700613/9022003700255,9022003700613,9022003700255,Uppsala Takpannegatan,Marknadsgatan (Uppsala),59.884258,17.670212,59.879833,17.674519,1819,-8,-0.0945945945945946
9022003700255/9022003700141,9022003700255,9022003700141,Marknadsgatan (Uppsala),Gränbystaden (Uppsala),59.879833,17.674519,59.875371,17.675144,1819,-127,-0.8026315789473685
9022003700002/9022003700567,9022003700002,9022003700567,Fredrika Bremersgatan (Uppsala),Nyby köpcentrum (Uppsala),59.886818,17.654831,59.886218,17.661694,1819,39,0.5737704918032787
9022003700353/9022003700336,9022003700353,9022003700336,Källarbäcksvägen (Uppsala),Kuggebro (Uppsala),59.826529,17.693449,59.832305,17.690761,1818,28,0.6222222222222222
9022003700354/9022003700353,9022003700354,9022003700353,Rörbäcksvägen (Uppsala),Källarbäcksvägen (Uppsala),59.823215,17.693511,59.826529,17.693449,1818,5,0.11904761904761904
9022003700355/9022003700354,9022003700355,9022003700354,Handarbetsvägen (Uppsala),Rörbäcksvägen (Uppsala),59.820816,17.691147,59.823215,17.693511,1818,18,0.5121951219512195
9022003700356/9022003700355,9022003700356,9022003700355,Bonadsvägen (Uppsala),Handarbetsvägen (Uppsala),59.818737,17.690869,59.820816,17.691147,1818,15,0.36363636363636365
9022003782004/9022003782076,9022003782004,9022003782076,Östhammar busstation,Vårdcentrum (Östhammar),60.258356,18.369683,60.259529,18.364715,1814,30,1.25
9022003700363/9022003700362,9022003700363,9022003700362,Nyckelaxet (Uppsala),Backmovägen (Uppsala),59.814647,17.724098,59.815895,17.717948,1811,33,0.4925373134328358
9022003700360/9022003700361,9022003700360,9022003700361,Fiskgjusevägen (Uppsala),Hultvägen (Uppsala),59.820076,17.70888,59.818239,17.714855,1809,-7,-0.14035087719298245
9022003700361/9022003700362,9022003700361,9022003700362,Hultvägen (Uppsala),Backmovägen (Uppsala),59.818239,17.714855,59.815895,17.717948,1806,-2,-0.05128205128205128
9022003760005/9022003760370,9022003760005,9022003760370,Tierp station (Tierp),Tegelbruksgatan (Tierp),60.34582,17.512932,60.342802,17.51022,1806,71,1.5384615384615385
9022003700159/9022003700160,9022003700159,9022003700160,Torbjörnsgatan (Uppsala),Sköldungagatan (Uppsala),59.87541,17.622927,59.873208,17.625754,1804,26,0.42105263157894735
9022003700157/9022003700159,9022003700157,9022003700159,Fjärdhundragatan (Uppsala),Torbjörnsgatan (Uppsala),59.878713,17.617839,59.87541,17.622927,1804,0,0
9022003700152/9022003700153,9022003700152,9022003700153,Bärbygatan (Uppsala),Bärbyparken (Uppsala),59.885549,17.618158,59.884482,17.614813,1804,0,0
9022003700155/9022003700157,9022003700155,9022003700157,Flottörgatan (Uppsala),Fjärdhundragatan (Uppsala),59.881423,17.612039,59.878713,17.617839,1804,8,0.07142857142857142
9022003700153/9022003700155,9022003700153,9022003700155,Bärbyparken (Uppsala),Flottörgatan (Uppsala),59.884482,17.614813,59.881423,17.612039,1804,4,0.08888888888888889
9022003700538/9022003700152,9022003700538,9022003700152,Garnisonen (Uppsala),Bärbygatan (Uppsala),59.8879,17.607173,59.885549,17.618158,1804,30,0.49122807017543857
9022003700160/9022003700162,9022003700160,9022003700162,Sköldungagatan (Uppsala),Svartbäckens vårdcentral (Uppsala),59.873208,17.625754,59.869091,17.628082,1802,-9,-0.07964601769911504
9022003700358/9022003700360,9022003700358,9022003700360,Sävja kyrka (Uppsala),Fiskgjusevägen (Uppsala),59.820667,17.703387,59.820076,17.70888,1794,-20,-0.2571428571428571
9022003700549/9022003700035,9022003700549,9022003700035,Börjegatan (Uppsala),Luthagsesplanaden (Uppsala),59.862598,17.613838,59.862582,17.624781,1794,18,0.15
9022003700323/9022003700549,9022003700323,9022003700549,Norrlandsgatan (Uppsala),Börjegatan (Uppsala),59.860709,17.608184,59.862598,17.613838,1794,26,0.48148148148148145
9022003700621/9022003700110,9022003700621,9022003700110,Uppsala Odensgatan,Saluhallen (Uppsala),59.86205,17.625644,59.859532,17.632414,1794,-3,-0.02112676056338028
9022003700591/9022003700063,9022003700591,9022003700063,Stadsbiblioteket (Uppsala),Vaksalagatan (Uppsala),59.861031,17.635638,59.860707,17.643421,1794,79,1.064102564102564
9022003700336/9022003700353,9022003700336,9022003700353,Kuggebro (Uppsala),Källarbäcksvägen (Uppsala),59.832305,17.690761,59.826529,17.693449,1794,6,0.07894736842105263
9022003700043/9022003700323,9022003700043,9022003700323,Stabby prästgård (Uppsala),Norrlandsgatan (Uppsala),59.863263,17.603931,59.860709,17.608184,1794,9,0.17307692307692307
9022003700356/9022003700358,9022003700356,9022003700358,Bonadsvägen (Uppsala),Sävja kyrka (Uppsala),59.818737,17.690869,59.820667,17.703387,1794,10,0.09401709401709402
9022003700354/9022003700355,9022003700354,9022003700355,Rörbäcksvägen (Uppsala),Handarbetsvägen (Uppsala),59.823215,17.693511,59.820816,17.691147,1794,12,0.5217391304347826
9022003700353/9022003700354,9022003700353,9022003700354,Källarbäcksvägen (Uppsala),Rörbäcksvägen (Uppsala),59.826529,17.693449,59.823215,17.693511,1794,2,0.038461538461538464
9022003700355/9022003700356,9022003700355,9022003700356,Handarbetsvägen (Uppsala),Bonadsvägen (Uppsala),59.820816,17.691147,59.818737,17.690869,1794,-23,-0.2823529411764706
9022003700003/9022003700043,9022003700003,9022003700043,Uppsala Mimmi Ekholms plats (Uppsala),Stabby prästgård (Uppsala),59.866036,17.608651,59.863263,17.603931,1794,25,0.38461538461538464
9022003700035/9022003700621,9022003700035,9022003700621,Luthagsesplanaden (Uppsala),Uppsala Odensgatan,59.862582,17.624781,59.86205,17.625644,1794,-5,-0.07246376811594203
9022003700362/9022003700363,9022003700362,9022003700363,Backmovägen (Uppsala),Nyckelaxet (Uppsala),59.815895,17.717948,59.814647,17.724098,1791,-43,-0.3949579831932773
9022003700285/9022003700083,9022003700285,9022003700083,Holmvägen (Uppsala),Morkullevägen (Uppsala),59.80566,17.652581,59.803049,17.644097,1788,8,0.09090909090909091
9022003700389/9022003700284,9022003700389,9022003700284,Genetikvägen (Uppsala),Ultunaallén (Uppsala),59.816416,17.648737,59.813145,17.650874,1788,0,0
9022003700021/9022003700387,9022003700021,9022003700387,Grindstugan (Uppsala),Ulleråker norra (Uppsala),59.839989,17.63996,59.83276,17.642666,1788,12,0.10377358490566038
9022003700393/9022003700289,9022003700393,9022003700289,Trasthagen (Uppsala),Sunnerstabacken (Uppsala),59.789335,17.645711,59.790371,17.658291,1788,-4,-0.031007751937984496
9022003700389/9022003700388,9022003700389,9022003700388,Genetikvägen (Uppsala),Hammarby kyrkogård (Uppsala),59.816416,17.648737,59.82776,17.644513,1787,0,0
9022003782076/9022003782367,9022003782076,9022003782367,Vårdcentrum (Östhammar),Ulrikeberg (Östhammar),60.259529,18.364715,60.259734,18.359201,1786,0,0
9022003782046/9022003782356,9022003782046,9022003782356,Ringvägen (Östhammar),Gammelbyn (Östhammar),60.256055,18.348759,60.25371,18.346481,1786,18,0.42857142857142855
9022003782046/9022003782367,9022003782046,9022003782367,Ringvägen (Östhammar),Ulrikeberg (Östhammar),60.256055,18.348759,60.259734,18.359201,1785,-25,-0.30120481927710846
9022003700110/9022003700621,9022003700110,9022003700621,Saluhallen (Uppsala),Uppsala Odensgatan,59.859532,17.632414,59.86205,17.625644,1784,-37,-0.25
9022003700361/9022003700360,9022003700361,9022003700360,Hultvägen (Uppsala),Fiskgjusevägen (Uppsala),59.818239,17.714855,59.820076,17.70888,1784,1,0.02
9022003700043/9022003700003,9022003700043,9022003700003,Stabby prästgård (Uppsala),Uppsala Mimmi Ekholms plats (Uppsala),59.863263,17.603931,59.866036,17.608651,1784,-61,-0.37640449438202245
9022003700323/9022003700043,9022003700323,9022003700043,Norrlandsgatan (Uppsala),Stabby prästgård (Uppsala),59.860709,17.608184,59.863263,17.603931,1784,-3,-0.05084745762711865
9022003700320/9022003700321,9022003700320,9022003700321,Sverkerskolan (Uppsala),Wallingatan (Uppsala),59.86472,17.620773,59.864739,17.618793,1784,6,0.09090909090909091
9022003700549/9022003700323,9022003700549,9022003700323,Börjegatan (Uppsala),Norrlandsgatan (Uppsala),59.862598,17.613838,59.860709,17.608184,1784,0,0
9022003700063/9022003700591,9022003700063,9022003700591,Vaksalagatan (Uppsala),Stadsbiblioteket (Uppsala),59.860707,17.643421,59.861031,17.635638,1784,22,0.328125
9022003700360/9022003700358,9022003700360,9022003700358,Fiskgjusevägen (Uppsala),Sävja kyrka (Uppsala),59.820076,17.70888,59.820667,17.703387,1784,5,0.1282051282051282
9022003700621/9022003700320,9022003700621,9022003700320,Uppsala Odensgatan,Sverkerskolan (Uppsala),59.86205,17.625644,59.86472,17.620773,1784,16,0.19753086419753085
9022003700321/9022003700549,9022003700321,9022003700549,Wallingatan (Uppsala),Börjegatan (Uppsala),59.864739,17.618793,59.862598,17.613838,1784,-4,-0.06060606060606061
9022003780017/9022003780768,9022003780017,9022003780768,Nävervägen (Björklinge) (Uppsala),Sätunavägen (Björklinge) (Uppsala),60.036323,17.550916,60.031316,17.552051,1780,0,0
9022003780768/9022003780024,9022003780768,9022003780024,Sätunavägen (Björklinge) (Uppsala),Björklinge centrum (Uppsala),60.031316,17.552051,60.029041,17.553025,1780,-23,-0.3048780487804878
9022003780792/9022003780017,9022003780792,9022003780017,Norra Långåsvägen (Björklinge) (Uppsala),Nävervägen (Björklinge) (Uppsala),60.039642,17.550445,60.036323,17.550916,1780,1,0.027777777777777776
9022003700358/9022003700356,9022003700358,9022003700356,Sävja kyrka (Uppsala),Bonadsvägen (Uppsala),59.820667,17.703387,59.818737,17.690869,1778,-27,-0.16666666666666666
9022003782367/9022003782076,9022003782367,9022003782076,Ulrikeberg (Östhammar),Vårdcentrum (Östhammar),60.259734,18.359201,60.259529,18.364715,1759,-3,-0.04838709677419355
9022003780722/9022003780731,9022003780722,9022003780731,Björklinge södra (Uppsala),Björklingegården (Uppsala),60.0193,17.555776,60.023283,17.553959,1753,-24,-0.453125
9022003700284/9022003700389,9022003700284,9022003700389,Ultunaallén (Uppsala),Genetikvägen (Uppsala),59.813145,17.650874,59.816416,17.648737,1751,50,1.6896551724137931
9022003700387/9022003700021,9022003700387,9022003700021,Ulleråker norra (Uppsala),Grindstugan (Uppsala),59.83276,17.642666,59.839989,17.63996,1747,2,0.017699115044247787
9022003700330/9022003700532,9022003700330,9022003700532,Fyrishov (Uppsala),Auroragatan (Uppsala),59.87118,17.626946,59.871149,17.630462,1741,47,0.9152542372881356
9022003700126/9022003700137,9022003700126,9022003700137,Portalgatan (Uppsala),Bureusgatan (Uppsala),59.867586,17.63948,59.870234,17.64725,1741,24,0.21929824561403508
9022003700003/9022003700374,9022003700003,9022003700374,Uppsala Mimmi Ekholms plats (Uppsala),Gimogatan (Uppsala),59.866036,17.608651,59.868859,17.607715,1741,29,0.410958904109589
9022003700322/9022003700003,9022003700322,9022003700003,Dalgatan (Uppsala),Uppsala Mimmi Ekholms plats (Uppsala),59.863128,17.613171,59.866036,17.608651,1741,-7,-0.0967741935483871
9022003700532/9022003700125,9022003700532,9022003700125,Auroragatan (Uppsala),Djäknegatan (Uppsala),59.871149,17.630462,59.87136,17.639224,1741,-19,-0.14383561643835616
9022003700401/9022003700547,9022003700401,9022003700547,Kungshörnet (Uppsala),Stålgatan södra (Uppsala),59.844531,17.666277,59.845717,17.67382,1735,0,0
9022003700094/9022003700065,9022003700094,9022003700065,Kyrkogårdsgatan (Uppsala),Slottsbacken (Uppsala),59.857313,17.62601,59.85489,17.632428,1735,30,0.32038834951456313
9022003700021/9022003700218,9022003700021,9022003700218,Grindstugan (Uppsala),Lundellska skolan (Uppsala),59.839989,17.63996,59.838602,17.65123,1735,11,0.05235602094240838
9022003700499/9022003700270,9022003700499,9022003700270,Coop/IKEA (Uppsala),Bolandsgatan (Uppsala),59.846031,17.694,59.848969,17.691311,1735,-28,-0.1658291457286432
9022003700547/9022003700499,9022003700547,9022003700499,Stålgatan södra (Uppsala),Coop/IKEA (Uppsala),59.845717,17.67382,59.846031,17.694,1735,23,0.13068181818181818
9022003700129/9022003700094,9022003700129,9022003700094,Ekonomikum (Uppsala),Kyrkogårdsgatan (Uppsala),59.860404,17.620003,59.857313,17.62601,1735,13,0.20634920634920634
9022003700003/9022003700322,9022003700003,9022003700322,Uppsala Mimmi Ekholms plats (Uppsala),Dalgatan (Uppsala),59.866036,17.608651,59.863128,17.613171,1735,9,0.1694915254237288
9022003700374/9022003700003,9022003700374,9022003700003,Gimogatan (Uppsala),Uppsala Mimmi Ekholms plats (Uppsala),59.868859,17.607715,59.866036,17.608651,1735,17,0.15315315315315314
9022003700218/9022003700401,9022003700218,9022003700401,Lundellska skolan (Uppsala),Kungshörnet (Uppsala),59.838602,17.65123,59.844531,17.666277,1735,-19,-0.14960629921259844
9022003705061/9022003705057,9022003705061,9022003705057,Yttergrans kyrka (Håbo),Grans gård (Håbo),59.601567,17.507218,59.59451,17.510669,1733,-3,-0.061224489795918366
9022003705068/9022003705061,9022003705068,9022003705061,Ekilla (Håbo),Yttergrans kyrka (Håbo),59.610362,17.500558,59.601567,17.507218,1733,-9,-0.13513513513513514
9022003700532/9022003700330,9022003700532,9022003700330,Auroragatan (Uppsala),Fyrishov (Uppsala),59.871149,17.630462,59.87118,17.626946,1727,-39,-0.3014705882352941
9022003700137/9022003700126,9022003700137,9022003700126,Bureusgatan (Uppsala),Portalgatan (Uppsala),59.870234,17.64725,59.867586,17.63948,1727,0,0
9022003700125/9022003700532,9022003700125,9022003700532,Djäknegatan (Uppsala),Auroragatan (Uppsala),59.87136,17.639224,59.871149,17.630462,1727,-5,-0.04424778761061947
9022003700567/9022003700002,9022003700567,9022003700002,Nyby köpcentrum (Uppsala),Fredrika Bremersgatan (Uppsala),59.886218,17.661694,59.886818,17.654831,1726,8,0.1568627450980392
9022003700613/9022003700567,9022003700613,9022003700567,Uppsala Takpannegatan,Nyby köpcentrum (Uppsala),59.884258,17.670212,59.886218,17.661694,1726,9,0.08108108108108109
9022003700255/9022003700613,9022003700255,9022003700613,Marknadsgatan (Uppsala),Uppsala Takpannegatan,59.879833,17.674519,59.884258,17.670212,1726,-27,-0.2403846153846154
9022003700141/9022003700255,9022003700141,9022003700255,Gränbystaden (Uppsala),Marknadsgatan (Uppsala),59.875371,17.675144,59.879833,17.674519,1726,25,0.40625
9022003700083/9022003700285,9022003700083,9022003700285,Morkullevägen (Uppsala),Holmvägen (Uppsala),59.803049,17.644097,59.80566,17.652581,1721,1,0.010101010101010102
9022003700270/9022003700499,9022003700270,9022003700499,Bolandsgatan (Uppsala),Coop/IKEA (Uppsala),59.848969,17.691311,59.846031,17.694,1720,21,0.3492063492063492
9022003700547/9022003700401,9022003700547,9022003700401,Stålgatan södra (Uppsala),Kungshörnet (Uppsala),59.845717,17.67382,59.844531,17.666277,1720,18,0.3902439024390244
9022003700218/9022003700021,9022003700218,9022003700021,Lundellska skolan (Uppsala),Grindstugan (Uppsala),59.838602,17.65123,59.839989,17.63996,1720,-90,-0.3347457627118644
9022003700401/9022003700218,9022003700401,9022003700218,Kungshörnet (Uppsala),Lundellska skolan (Uppsala),59.844531,17.666277,59.838602,17.65123,1720,-19,-0.175
9022003700065/9022003700094,9022003700065,9022003700094,Slottsbacken (Uppsala),Kyrkogårdsgatan (Uppsala),59.85489,17.632428,59.857313,17.62601,1720,26,0.29069767441860467
9022003700256/9022003700636,9022003700256,9022003700636,Svärdsliljegatan (Uppsala),Uppsala Årsta torg,59.872624,17.6789,59.865787,17.681747,1720,18,0.2073170731707317
9022003700141/9022003700256,9022003700141,9022003700256,Gränbystaden (Uppsala),Svärdsliljegatan (Uppsala),59.875371,17.675144,59.872624,17.6789,1720,1,0.007194244604316547
9022003700094/9022003700129,9022003700094,9022003700129,Kyrkogårdsgatan (Uppsala),Ekonomikum (Uppsala),59.857313,17.62601,59.860404,17.620003,1720,-25,-0.17886178861788618
9022003700203/9022003700270,9022003700203,9022003700270,Hanselligatan (Uppsala),Bolandsgatan (Uppsala),59.852417,17.693808,59.848969,17.691311,1720,-31,-0.2421875
9022003700499/9022003700547,9022003700499,9022003700547,Coop/IKEA (Uppsala),Stålgatan södra (Uppsala),59.846031,17.694,59.845717,17.67382,1720,50,0.2512315270935961
9022003700001/9022003700622,9022003700001,9022003700622,Stora Torget (Uppsala),Uppsala Stadshuset,59.858594,17.639199,59.86072,17.643797,1713,86,1.72
9022003700636/9022003700256,9022003700636,9022003700256,Uppsala Årsta torg,Svärdsliljegatan (Uppsala),59.865787,17.681747,59.872624,17.6789,1713,-5,-0.05434782608695652
9022003700270/9022003700203,9022003700270,9022003700203,Bolandsgatan (Uppsala),Hanselligatan (Uppsala),59.848969,17.691311,59.852417,17.693808,1713,26,0.373134328358209
9022003700256/9022003700141,9022003700256,9022003700141,Svärdsliljegatan (Uppsala),Gränbystaden (Uppsala),59.872624,17.6789,59.875371,17.675144,1713,-51,-0.310126582278481
9022003779094/9022003780196,9022003779094,9022003780196,Kumla (Uppsala),Viktoria (Uppsala),59.84544,17.727368,59.846117,17.709832,1711,-47,-0.30409356725146197
9022003780196/9022003779093,9022003780196,9022003779093,Viktoria (Uppsala),Uppsala Business Park södra (Uppsala),59.846117,17.709832,59.845819,17.70439,1711,-12,-0.2708333333333333
9022003779093/9022003700546,9022003779093,9022003700546,Uppsala Business Park södra (Uppsala),Rapsgatan (Uppsala),59.845819,17.70439,59.843842,17.688827,1711,-25,-0.2047244094488189
9022003779096/9022003779094,9022003779096,9022003779094,"Årsta vägskäl, v. 282 (Uppsala)",Kumla (Uppsala),59.844318,17.73965,59.84544,17.727368,1711,3,0.037037037037037035
9022003700157/9022003700155,9022003700157,9022003700155,Fjärdhundragatan (Uppsala),Flottörgatan (Uppsala),59.878713,17.617839,59.881423,17.612039,1704,-72,-0.41040462427745666
9022003700159/9022003700157,9022003700159,9022003700157,Torbjörnsgatan (Uppsala),Fjärdhundragatan (Uppsala),59.87541,17.622927,59.878713,17.617839,1704,-9,-0.10588235294117647
9022003700155/9022003700153,9022003700155,9022003700153,Flottörgatan (Uppsala),Bärbyparken (Uppsala),59.881423,17.612039,59.884482,17.614813,1704,-29,-0.358974358974359
9022003700162/9022003700160,9022003700162,9022003700160,Svartbäckens vårdcentral (Uppsala),Sköldungagatan (Uppsala),59.869091,17.628082,59.873208,17.625754,1704,21,0.27058823529411763
9022003700152/9022003700538,9022003700152,9022003700538,Bärbygatan (Uppsala),Garnisonen (Uppsala),59.885549,17.618158,59.8879,17.607173,1704,-80,-0.512396694214876
9022003700160/9022003700159,9022003700160,9022003700159,Sköldungagatan (Uppsala),Torbjörnsgatan (Uppsala),59.873208,17.625754,59.87541,17.622927,1704,-12,-0.17391304347826086
9022003700153/9022003700152,9022003700153,9022003700152,Bärbyparken (Uppsala),Bärbygatan (Uppsala),59.884482,17.614813,59.885549,17.618158,1704,-20,-0.3333333333333333
9022003700289/9022003700393,9022003700289,9022003700393,Sunnerstabacken (Uppsala),Trasthagen (Uppsala),59.790371,17.658291,59.789335,17.645711,1703,0,0
9022003700546/9022003779093,9022003700546,9022003779093,Rapsgatan (Uppsala),Uppsala Business Park södra (Uppsala),59.843842,17.688827,59.845819,17.70439,1696,33,0.37362637362637363
9022003779093/9022003780196,9022003779093,9022003780196,Uppsala Business Park södra (Uppsala),Viktoria (Uppsala),59.845819,17.70439,59.846117,17.709832,1696,1,0.017857142857142856
9022003780196/9022003779094,9022003780196,9022003779094,Viktoria (Uppsala),Kumla (Uppsala),59.846117,17.709832,59.84544,17.727368,1696,41,0.8571428571428571
9022003779094/9022003779096,9022003779094,9022003779096,Kumla (Uppsala),"Årsta vägskäl, v. 282 (Uppsala)",59.84544,17.727368,59.844318,17.73965,1696,28,0.40298507462686567
9022003782367/9022003782046,9022003782367,9022003782046,Ulrikeberg (Östhammar),Ringvägen (Östhammar),60.259734,18.359201,60.256055,18.348759,1684,9,0.16
9022003700409/9022003700411,9022003700409,9022003700411,Lurbo bro (Uppsala),Gottsundavägen (Uppsala),59.805493,17.605702,59.808987,17.608172,1681,-3,-0.05454545454545454
9022003700082/9022003700083,9022003700082,9022003700083,Orkestervägen (Uppsala),Morkullevägen (Uppsala),59.806765,17.637779,59.803049,17.644097,1681,18,0.5625
9022003700408/9022003700409,9022003700408,9022003700409,Vårdsätravik (Uppsala),Lurbo bro (Uppsala),59.801157,17.609567,59.805493,17.605702,1681,1,0.015151515151515152
9022003700294/9022003700404,9022003700294,9022003700404,Lyssnavägen (Uppsala),Gullvivevägen (Uppsala),59.786604,17.634215,59.791754,17.623506,1681,-13,-0.14130434782608695
9022003700293/9022003700294,9022003700293,9022003700294,Granebergsparken (Uppsala),Lyssnavägen (Uppsala),59.787832,17.637613,59.786604,17.634215,1681,-3,-0.10714285714285714
9022003700393/9022003700293,9022003700393,9022003700293,Trasthagen (Uppsala),Granebergsparken (Uppsala),59.789335,17.645711,59.787832,17.637613,1681,-9,-0.1
9022003700014/9022003700082,9022003700014,9022003700082,Gottsunda torg (Uppsala),Orkestervägen (Uppsala),59.811287,17.62694,59.806765,17.637779,1681,80,0.9318181818181818
9022003700407/9022003700408,9022003700407,9022003700408,Granelidsvägen (Uppsala),Vårdsätravik (Uppsala),59.799646,17.615686,59.801157,17.609567,1681,7,0.16279069767441862
9022003700404/9022003700406,9022003700404,9022003700406,Gullvivevägen (Uppsala),Slånvägen (Uppsala),59.791754,17.623506,59.795195,17.620041,1681,-19,-0.3275862068965517
9022003700406/9022003700407,9022003700406,9022003700407,Slånvägen (Uppsala),Granelidsvägen (Uppsala),59.795195,17.620041,59.799646,17.615686,1681,-33,-0.358695652173913
9022003779085/9022003780412,9022003779085,9022003780412,Nåsten (Uppsala),Kristineberg (Uppsala),59.841521,17.535377,59.835777,17.518776,1674,9,0.1875
9022003779087/9022003779085,9022003779087,9022003779085,Kvarnbolund (Uppsala),Nåsten (Uppsala),59.845552,17.553071,59.841521,17.535377,1674,10,0.23255813953488372
9022003780412/9022003779085,9022003780412,9022003779085,Kristineberg (Uppsala),Nåsten (Uppsala),59.835777,17.518776,59.841521,17.535377,1662,1,0.022222222222222223
9022003780024/9022003780731,9022003780024,9022003780731,Björklinge centrum (Uppsala),Björklingegården (Uppsala),60.029041,17.553025,60.023283,17.553959,1658,-14,-0.18072289156626506
9022003780731/9022003780722,9022003780731,9022003780722,Björklingegården (Uppsala),Björklinge södra (Uppsala),60.023283,17.553959,60.0193,17.555776,1658,4,0.08163265306122448
9022003780362/9022003780351,9022003780362,9022003780351,Bragby (Uppsala),Västergärde (Uppsala),59.789164,17.431746,59.782626,17.416665,1642,-10,-0.18181818181818182
9022003700411/9022003700409,9022003700411,9022003700409,Gottsundavägen (Uppsala),Lurbo bro (Uppsala),59.808987,17.608172,59.805493,17.605702,1640,8,0.42105263157894735
9022003705052/9022003705050,9022003705052,9022003705050,Medborgarhuset (Bålsta) (Håbo),Lilla Hagalund (Bålsta) (Håbo),59.576376,17.511858,59.572541,17.521592,1637,-57,-0.44274809160305345
9022003705054/9022003705052,9022003705054,9022003705052,Gransäterskolan (Bålsta) (Håbo),Medborgarhuset (Bålsta) (Håbo),59.582287,17.508174,59.576376,17.511858,1637,-41,-0.3228346456692913
