edge_id,source_name,sink_name,source_lat,source_lon,sink_lat,sink_lon,record_count,scheduled,abs_median_deviation,relative_deviation_factor,flow
9022003700525/9022003700021,Uppsala Science Park (Uppsala),Grindstugan (Uppsala),59.843157,17.638761,59.839989,17.63996,11216,87,-11,0.777,396.1287272727273
9022003700021/9022003700525,Grindstugan (Uppsala),Uppsala Science Park (Uppsala),59.839989,17.63996,59.843157,17.638761,11251,72,-4,0.75,383.5568181818182
9022003700172/9022003700032,Skolgatan (Uppsala),Klostergatan (Uppsala),59.863106,17.635574,59.861158,17.636824,9808,108,-21,0.781,348.184
9022003700025/9022003700587,Akademiska sjukhuset södra (Uppsala),Akademiska sjukhuset (Uppsala),59.846323,17.638346,59.847473,17.642852,8360,56,-1,0.878,333.64
9022003700578/9022003700587,Svandammen (Uppsala),Akademiska sjukhuset (Uppsala),59.854288,17.638927,59.847473,17.642852,8352,52,0,0.875,332.1818181818182
9022003700032/9022003700600,Klostergatan (Uppsala),Uppsala Centralstationen (Uppsala),59.861158,17.636824,59.858683,17.64372,9161,238,-40,0.796,331.4616363636364
9022003700525/9022003700025,Uppsala Science Park (Uppsala),Akademiska sjukhuset södra (Uppsala),59.843157,17.638761,59.846323,17.638346,8360,92,0,0.872,331.36
9022003700025/9022003700525,Akademiska sjukhuset södra (Uppsala),Uppsala Science Park (Uppsala),59.846323,17.638346,59.843157,17.638761,8352,53,0,0.846,321.1723636363636
9022003700062/9022003700600,Vaksala torg (Uppsala),Uppsala Centralstationen (Uppsala),59.861884,17.645968,59.858683,17.64372,8091,273,-35,0.848,311.8712727272727
9022003700494/9022003700025,Akademiska ingång 78-85 (Uppsala),Akademiska sjukhuset södra (Uppsala),59.84732,17.641577,59.846323,17.638346,7552,70,0,0.864,296.58763636363636
9022003700172/9022003700162,Skolgatan (Uppsala),Svartbäckens vårdcentral (Uppsala),59.863106,17.635574,59.869091,17.628082,8239,116,17,0.789,295.4805
9022003700587/9022003700494,Akademiska sjukhuset (Uppsala),Akademiska ingång 78-85 (Uppsala),59.847473,17.642852,59.84732,17.641577,7552,65,-3,0.849,291.4385454545454
9022003700162/9022003700172,Svartbäckens vårdcentral (Uppsala),Skolgatan (Uppsala),59.869091,17.628082,59.863106,17.635574,8349,197,-72,0.74,280.83
9022003700325/9022003700600,Bäverns gränd (Uppsala),Uppsala Centralstationen (Uppsala),59.856129,17.645311,59.858683,17.64372,8104,235,-76,0.726,267.432
9022003700587/9022003700578,Akademiska sjukhuset (Uppsala),Svandammen (Uppsala),59.847473,17.642852,59.854288,17.638927,8358,166,-73,0.692,262.89709090909093
9022003700032/9022003700172,Klostergatan (Uppsala),Skolgatan (Uppsala),59.861158,17.636824,59.863106,17.635574,8393,54,28,0.624,238.056
9022003700325/9022003700578,Bäverns gränd (Uppsala),Svandammen (Uppsala),59.856129,17.645311,59.854288,17.638927,6756,85,31,0.735,225.71181818181816
9022003700259/9022003700600,Samariterhemmet (Uppsala),Uppsala Centralstationen (Uppsala),59.855191,17.650096,59.858683,17.64372,7111,217,-85,0.696,224.9661818181818
9022003700583/9022003700069,Evolutionsmuseet (Uppsala),Birkagatan (Uppsala),59.850498,17.624121,59.846989,17.61747,5225,89,0,0.907,215.4125
9022003700069/9022003700583,Birkagatan (Uppsala),Evolutionsmuseet (Uppsala),59.846989,17.61747,59.850498,17.624121,5211,90,-2,0.909,215.30904545454547
9022003700072/9022003700070,Täljstenen (Uppsala),Sommarro (Uppsala),59.839678,17.613791,59.843355,17.616666,5211,71,1,0.884,209.38745454545455
9022003700066/9022003700593,Segerstedthuset (Uppsala),Uppsala Akademiska sjukhuset västra,59.852982,17.633394,59.849367,17.636426,4971,56,-2,0.924,208.782
9022003700575/9022003700583,Blåsenhus (Uppsala),Evolutionsmuseet (Uppsala),59.851765,17.630508,59.850498,17.624121,5225,36,3,0.875,207.8125
9022003700070/9022003700071,Sommarro (Uppsala),Lindsbergsgatan (Uppsala),59.843355,17.616666,59.84185,17.61646,5222,41,1,0.87,206.50636363636363
9022003700583/9022003700575,Evolutionsmuseet (Uppsala),Blåsenhus (Uppsala),59.850498,17.624121,59.851765,17.630508,5211,60,-4,0.869,205.83450000000002
9022003700070/9022003700069,Sommarro (Uppsala),Birkagatan (Uppsala),59.843355,17.616666,59.846989,17.61747,5205,74,-10,0.857,202.75840909090908
9022003700016/9022003700014,Linrepevägen (Uppsala),Gottsunda torg (Uppsala),59.813073,17.63415,59.811287,17.62694,5138,146,-11,0.863,201.54972727272727
9022003700064/9022003700065,Trädgårdsgatan (Uppsala),Slottsbacken (Uppsala),59.857322,17.636399,59.85489,17.632428,5804,42,14,0.745,196.54454545454544
9022003700069/9022003700070,Birkagatan (Uppsala),Sommarro (Uppsala),59.846989,17.61747,59.843355,17.616666,5225,44,7,0.827,196.4125
9022003700593/9022003700066,Uppsala Akademiska sjukhuset västra,Segerstedthuset (Uppsala),59.849367,17.636426,59.852982,17.633394,4999,54,3,0.855,194.27931818181818
9022003700578/9022003700325,Svandammen (Uppsala),Bäverns gränd (Uppsala),59.854288,17.638927,59.856129,17.645311,7615,79,62,0.554,191.75954545454547
9022003700541/9022003700146,Molngatan (Uppsala),Österängsgatan norra (Uppsala),59.86984,17.66312,59.866155,17.655148,4728,121,21,0.844,181.38327272727273
9022003700581/9022003700062,Väderkvarnsgatan (Uppsala),Vaksala torg (Uppsala),59.864202,17.643918,59.861884,17.645968,4722,99,-12,0.845,181.36772727272725
9022003700146/9022003700147,Österängsgatan norra (Uppsala),Torkelsgatan norra (Uppsala),59.866155,17.655148,59.864098,17.650696,4246,73,-1,0.92,177.56
9022003700002/9022003700132,Fredrika Bremersgatan (Uppsala),Lagerlöfsgatan (Uppsala),59.886818,17.654831,59.880933,17.655112,4403,121,8,0.88,176.12
9022003700593/9022003700525,Uppsala Akademiska sjukhuset västra,Uppsala Science Park (Uppsala),59.849367,17.636426,59.843157,17.638761,4460,100,12,0.866,175.56181818181818
9022003700022/9022003700021,Rosendals skola (Uppsala),Grindstugan (Uppsala),59.832806,17.640636,59.839989,17.63996,4247,137,7,0.908,175.2852727272727
9022003700600/9022003700617,Uppsala Centralstationen (Uppsala),Uppsala Regionens hus,59.858683,17.64372,59.860449,17.64587,4897,91,18,0.774,172.28536363636366
9022003700575/9022003700065,Blåsenhus (Uppsala),Slottsbacken (Uppsala),59.851765,17.630508,59.85489,17.632428,4109,87,1,0.91,169.96318181818182
9022003700063/9022003700600,Vaksalagatan (Uppsala),Uppsala Centralstationen (Uppsala),59.860707,17.643421,59.858683,17.64372,5751,314,-160,0.645,168.60886363636365
9022003700064/9022003700001,Trädgårdsgatan (Uppsala),Stora Torget (Uppsala),59.857322,17.636399,59.858594,17.639199,5822,202,-110,0.636,168.30872727272728
9022003700525/9022003700593,Uppsala Science Park (Uppsala),Uppsala Akademiska sjukhuset västra,59.843157,17.638761,59.849367,17.636426,4474,101,17,0.823,167.36827272727274
9022003700579/9022003700020,Slädvägen (Uppsala),Tallbacksvägen (Uppsala),59.823037,17.626494,59.826865,17.630109,4246,51,7,0.867,167.331
9022003700071/9022003700072,Lindsbergsgatan (Uppsala),Täljstenen (Uppsala),59.84185,17.61646,59.839678,17.613791,5206,117,-45,0.705,166.82863636363635
9022003700137/9022003700135,Bureusgatan (Uppsala),Levertinsgatan (Uppsala),59.870234,17.64725,59.874018,17.653317,4398,118,7,0.831,166.12445454545454
9022003781199/9022003781210,S:t Ilian (Enköping),Enköping station,59.643688,17.081986,59.644447,17.086076,4541,108,3,0.802,165.5400909090909
9022003700020/9022003700579,Tallbacksvägen (Uppsala),Slädvägen (Uppsala),59.826865,17.630109,59.823037,17.626494,4308,52,9,0.838,164.09563636363634
9022003700147/9022003700146,Torkelsgatan norra (Uppsala),Österängsgatan norra (Uppsala),59.864098,17.650696,59.866155,17.655148,4114,59,-1,0.875,163.625
9022003700225/9022003700224,Campus Ultuna (Uppsala),Veterinärvägen (Uppsala),59.815615,17.659121,59.818594,17.658609,4571,62,15,0.786,163.30936363636366
9022003700333/9022003700547,Kungsängsesplanaden (Uppsala),Stålgatan södra (Uppsala),59.850218,17.659028,59.845717,17.67382,4343,152,14,0.826,163.0599090909091
9022003700053/9022003700636,Årstagården (Uppsala),Uppsala Årsta torg,59.861087,17.685231,59.865787,17.681747,3874,88,-3,0.919,161.82754545454546
9022003700065/9022003700575,Slottsbacken (Uppsala),Blåsenhus (Uppsala),59.85489,17.632428,59.851765,17.630508,4181,71,12,0.847,160.96849999999998
9022003700022/9022003700020,Rosendals skola (Uppsala),Tallbacksvägen (Uppsala),59.832806,17.640636,59.826865,17.630109,4308,93,19,0.82,160.57090909090908
9022003700334/9022003700333,Vimpelgatan (Uppsala),Kungsängsesplanaden (Uppsala),59.8482,17.662699,59.850218,17.659028,3972,58,-3,0.886,159.9632727272727
9022003700336/9022003700335,Kuggebro (Uppsala),Östra Vindbrovägen (Uppsala),59.832305,17.690761,59.84405,17.673601,3972,95,13,0.885,159.78272727272727
9022003700203/9022003700201,Hanselligatan (Uppsala),Axel Johanssons gata (Uppsala),59.852417,17.693808,59.857169,17.689901,3979,67,3,0.883,159.70259090909093
9022003700135/9022003700137,Levertinsgatan (Uppsala),Bureusgatan (Uppsala),59.874018,17.653317,59.870234,17.64725,4427,105,26,0.793,159.57322727272728
9022003700335/9022003700336,Östra Vindbrovägen (Uppsala),Kuggebro (Uppsala),59.84405,17.673601,59.832305,17.690761,3896,88,6,0.901,159.5589090909091
9022003700224/9022003700225,Veterinärvägen (Uppsala),Campus Ultuna (Uppsala),59.818594,17.658609,59.815615,17.659121,4592,92,-24,0.763,159.2589090909091
9022003700125/9022003700126,Djäknegatan (Uppsala),Portalgatan (Uppsala),59.87136,17.639224,59.867586,17.63948,3780,71,-2,0.918,157.7290909090909
9022003700333/9022003700539,Kungsängsesplanaden (Uppsala),Strandbodgatan (Uppsala),59.850218,17.659028,59.853083,17.653834,3972,84,-11,0.87,157.07454545454544
9022003700333/9022003700334,Kungsängsesplanaden (Uppsala),Vimpelgatan (Uppsala),59.850218,17.659028,59.8482,17.662699,3896,75,0,0.878,155.4858181818182
9022003700110/9022003700591,Saluhallen (Uppsala),Stadsbiblioteket (Uppsala),59.859532,17.632414,59.861031,17.635638,3693,62,0,0.925,155.27386363636364
9022003700539/9022003700259,Strandbodgatan (Uppsala),Samariterhemmet (Uppsala),59.853083,17.653834,59.855191,17.650096,3973,60,8,0.857,154.7664090909091
9022003700020/9022003700022,Tallbacksvägen (Uppsala),Rosendals skola (Uppsala),59.826865,17.630109,59.832806,17.640636,4224,96,20,0.803,154.17600000000002
9022003700201/9022003700203,Axel Johanssons gata (Uppsala),Hanselligatan (Uppsala),59.857169,17.689901,59.852417,17.693808,3980,110,-15,0.849,153.59181818181818
9022003700126/9022003700125,Portalgatan (Uppsala),Djäknegatan (Uppsala),59.867586,17.63948,59.87136,17.639224,3737,53,0,0.902,153.217
9022003700021/9022003700022,Grindstugan (Uppsala),Rosendals skola (Uppsala),59.839989,17.63996,59.832806,17.640636,4308,100,6,0.772,151.17163636363637
9022003700600/9022003700325,Uppsala Centralstationen (Uppsala),Bäverns gränd (Uppsala),59.858683,17.64372,59.856129,17.645311,7281,71,91,0.456,150.91527272727274
9022003700636/9022003700053,Uppsala Årsta torg,Årstagården (Uppsala),59.865787,17.681747,59.861087,17.685231,3815,92,0,0.852,147.74454545454546
9022003700062/9022003700147,Vaksala torg (Uppsala),Torkelsgatan norra (Uppsala),59.861884,17.645968,59.864098,17.650696,4114,108,27,0.79,147.73000000000002
9022003700134/9022003700135,Almqvistgatan (Uppsala),Levertinsgatan (Uppsala),59.876488,17.655168,59.874018,17.653317,4427,83,-25,0.727,146.29222727272727
9022003700132/9022003700002,Lagerlöfsgatan (Uppsala),Fredrika Bremersgatan (Uppsala),59.880933,17.655112,59.886818,17.654831,4479,198,-64,0.717,145.9746818181818
9022003700334/9022003700335,Vimpelgatan (Uppsala),Östra Vindbrovägen (Uppsala),59.8482,17.662699,59.84405,17.673601,3896,79,15,0.818,144.86036363636362
9022003700600/9022003700032,Uppsala Centralstationen (Uppsala),Klostergatan (Uppsala),59.858683,17.64372,59.861158,17.636824,8340,94,147,0.382,144.81272727272727
9022003700539/9022003700333,Strandbodgatan (Uppsala),Kungsängsesplanaden (Uppsala),59.853083,17.653834,59.850218,17.659028,3896,84,-18,0.815,144.3290909090909
9022003700170/9022003700169,Gnejsvägen (Uppsala),Västertorg (Uppsala),59.839828,17.596263,59.840677,17.602445,3620,69,-7,0.868,142.82545454545453
9022003700166/9022003700072,Glimmervägen (Uppsala),Täljstenen (Uppsala),59.840059,17.608263,59.839678,17.613791,3620,102,-8,0.867,142.6609090909091
9022003700132/9022003700134,Lagerlöfsgatan (Uppsala),Almqvistgatan (Uppsala),59.880933,17.655112,59.876488,17.655168,4427,69,26,0.708,142.46890909090908
9022003700223/9022003700224,SVA (Uppsala),Veterinärvägen (Uppsala),59.822189,17.65642,59.818594,17.658609,3386,39,1,0.913,140.519
9022003700062/9022003700001,Vaksala torg (Uppsala),Stora Torget (Uppsala),59.861884,17.645968,59.858594,17.639199,3934,279,-81,0.781,139.657
9022003700574/9022003700222,Ekudden (Uppsala),Kronparksgården (Uppsala),59.827178,17.654075,59.828995,17.651215,3391,48,0,0.905,139.4934090909091
9022003700204/9022003700513,Möllersvärdsgatan (Uppsala),Uppsala Business Park västra (Uppsala),59.851727,17.696839,59.850242,17.700823,4741,82,-23,0.646,139.213
9022003700400/9022003700221,Lägerhyddsvägen (Uppsala),Gustaf Kjellbergs väg (Uppsala),59.839062,17.651041,59.831564,17.649877,3386,69,-2,0.903,138.9799090909091
9022003700335/9022003700334,Östra Vindbrovägen (Uppsala),Vimpelgatan (Uppsala),59.84405,17.673601,59.8482,17.662699,3972,114,-34,0.768,138.65890909090908
9022003700547/9022003700333,Stålgatan södra (Uppsala),Kungsängsesplanaden (Uppsala),59.845717,17.67382,59.850218,17.659028,4322,200,-80,0.702,137.91109090909092
9022003781199/9022003781002,S:t Ilian (Enköping),Gustav Adolfs plan (Enköping),59.643688,17.081986,59.636758,17.075465,3478,169,-3,0.866,136.90672727272727
9022003700224/9022003700223,Veterinärvägen (Uppsala),SVA (Uppsala),59.818594,17.658609,59.822189,17.65642,3391,67,-1,0.888,136.8730909090909
9022003700135/9022003700134,Levertinsgatan (Uppsala),Almqvistgatan (Uppsala),59.874018,17.653317,59.876488,17.655168,4479,69,0,0.667,135.79513636363637
9022003700053/9022003700201,Årstagården (Uppsala),Axel Johanssons gata (Uppsala),59.861087,17.685231,59.857169,17.689901,3836,60,19,0.77,134.26000000000002
9022003700221/9022003700400,Gustaf Kjellbergs väg (Uppsala),Lägerhyddsvägen (Uppsala),59.831564,17.649877,59.839062,17.651041,3391,83,-11,0.871,134.2527727272727
9022003700392/9022003700086,Svankärrsvägen (Uppsala),Långvägen (Uppsala),59.792518,17.643464,59.796724,17.641237,3326,86,-10,0.882,133.34236363636364
9022003700085/9022003700083,Entitparken (Uppsala),Morkullevägen (Uppsala),59.799628,17.644158,59.803049,17.644097,3343,54,0,0.877,133.26413636363637
9022003700147/9022003700062,Torkelsgatan norra (Uppsala),Vaksala torg (Uppsala),59.864098,17.650696,59.861884,17.645968,4252,50,23,0.687,132.77836363636365
9022003700600/9022003700259,Uppsala Centralstationen (Uppsala),Samariterhemmet (Uppsala),59.858683,17.64372,59.855191,17.650096,7068,69,97,0.412,132.36436363636363
9022003700065/9022003700064,Slottsbacken (Uppsala),Trädgårdsgatan (Uppsala),59.85489,17.632428,59.857322,17.636399,5816,33,34,0.5,132.1818181818182
9022003700214/9022003700610,Gatstenen (Uppsala),Hedensbergsvägen (Uppsala),59.853822,17.571173,59.850917,17.572232,3185,48,-1,0.909,131.59840909090912
9022003700134/9022003700132,Almqvistgatan (Uppsala),Lagerlöfsgatan (Uppsala),59.876488,17.655168,59.880933,17.655112,4476,117,-55,0.646,131.4316363636364
9022003700600/9022003700062,Uppsala Centralstationen (Uppsala),Vaksala torg (Uppsala),59.858683,17.64372,59.861884,17.645968,8006,89,147,0.361,131.3711818181818
9022003700574/9022003700223,Ekudden (Uppsala),SVA (Uppsala),59.827178,17.654075,59.822189,17.65642,3386,89,-15,0.848,130.51490909090907
9022003781210/9022003781199,Enköping station,S:t Ilian (Enköping),59.644447,17.086076,59.643688,17.081986,4888,67,30,0.587,130.42072727272728
9022003700066/9022003700065,Segerstedthuset (Uppsala),Slottsbacken (Uppsala),59.852982,17.633394,59.85489,17.632428,3433,48,3,0.833,129.98586363636363
9022003700014/9022003700016,Gottsunda torg (Uppsala),Linrepevägen (Uppsala),59.811287,17.62694,59.813073,17.63415,4954,70,51,0.577,129.9299090909091
9022003700086/9022003700085,Långvägen (Uppsala),Entitparken (Uppsala),59.796724,17.641237,59.799628,17.644158,3343,47,3,0.855,129.92113636363638
9022003700104/9022003700536,Flogsta centrum (Uppsala),Stenhagen (Uppsala),59.852083,17.587641,59.848034,17.564211,3254,117,7,0.877,129.71627272727272
9022003700317/9022003700316,Lilla Myrby (Uppsala),Ärna gård (Uppsala),59.893152,17.615677,59.90406,17.610426,3086,76,-5,0.924,129.61200000000002
9022003700201/9022003700053,Axel Johanssons gata (Uppsala),Årstagården (Uppsala),59.857169,17.689901,59.861087,17.685231,3874,68,25,0.735,129.4268181818182
9022003700063/9022003700172,Vaksalagatan (Uppsala),Skolgatan (Uppsala),59.860707,17.643421,59.863106,17.635574,3945,88,35,0.721,129.28840909090908
9022003700368/9022003700317,Tunabergsallén (Uppsala),Lilla Myrby (Uppsala),59.878229,17.622938,59.893152,17.615677,3086,140,-6,0.921,129.19118181818183
9022003700513/9022003700204,Uppsala Business Park västra (Uppsala),Möllersvärdsgatan (Uppsala),59.850242,17.700823,59.851727,17.696839,4734,34,21,0.6,129.1090909090909
9022003700316/9022003700317,Ärna gård (Uppsala),Lilla Myrby (Uppsala),59.90406,17.610426,59.893152,17.615677,3146,68,-3,0.9,128.70000000000002
9022003700085/9022003700086,Entitparken (Uppsala),Långvägen (Uppsala),59.799628,17.644158,59.796724,17.641237,3469,49,5,0.814,128.353
9022003700622/9022003700600,Uppsala Stadshuset,Uppsala Centralstationen (Uppsala),59.86072,17.643797,59.858683,17.64372,3690,123,-4,0.762,127.80818181818181
9022003700572/9022003700021,Polacksbacken (Uppsala),Grindstugan (Uppsala),59.840257,17.647825,59.839989,17.63996,3391,120,0,0.827,127.47077272727272
9022003700610/9022003700104,Hedensbergsvägen (Uppsala),Flogsta centrum (Uppsala),59.850917,17.572232,59.852083,17.587641,3164,153,-19,0.881,126.70381818181818
9022003700315/9022003700316,Ärna bro (Uppsala),Ärna gård (Uppsala),59.9097,17.607728,59.90406,17.610426,3146,36,0,0.879,125.697
9022003700086/9022003700392,Långvägen (Uppsala),Svankärrsvägen (Uppsala),59.796724,17.641237,59.792518,17.643464,3468,96,-17,0.796,125.47854545454545
9022003700223/9022003700574,SVA (Uppsala),Ekudden (Uppsala),59.822189,17.65642,59.827178,17.654075,3391,104,-21,0.814,125.46699999999998
9022003781002/9022003781199,Gustav Adolfs plan (Enköping),S:t Ilian (Enköping),59.636758,17.075465,59.643688,17.081986,3507,192,-45,0.78,124.33909090909091
9022003700137/9022003700139,Bureusgatan (Uppsala),Kvarntorget (Uppsala),59.870234,17.64725,59.866282,17.646693,3226,116,-20,0.846,124.05436363636362
9022003700333/9022003700259,Kungsängsesplanaden (Uppsala),Samariterhemmet (Uppsala),59.850218,17.659028,59.855191,17.650096,3161,141,-13,0.862,123.85372727272727
9022003700129/9022003700172,Ekonomikum (Uppsala),Skolgatan (Uppsala),59.860404,17.620003,59.863106,17.635574,3268,176,-14,0.833,123.73836363636362
9022003700374/9022003700566,Gimogatan (Uppsala),Seminariegatan (Uppsala),59.868859,17.607715,59.869618,17.613934,3128,64,-2,0.867,123.27163636363636
9022003191042/9022003191225,Terminal 5 (Arlanda) (Sigtuna),Terminal 4 (Arlanda) (Sigtuna),59.651623,17.933804,59.64677,17.928548,3046,118,0,0.889,123.08609090909093
9022003700392/9022003700393,Svankärrsvägen (Uppsala),Trasthagen (Uppsala),59.792518,17.643464,59.789335,17.645711,3463,67,-12,0.781,122.9365
9022003700218/9022003700400,Lundellska skolan (Uppsala),Lägerhyddsvägen (Uppsala),59.838602,17.65123,59.839062,17.651041,3386,54,-8,0.796,122.51163636363637
9022003700330/9022003700552,Fyrishov (Uppsala),Klockarängen (Uppsala),59.87118,17.626946,59.869618,17.613934,3136,64,3,0.857,122.16145454545453
9022003700388/9022003700387,Hammarby kyrkogård (Uppsala),Ulleråker norra (Uppsala),59.82776,17.644513,59.83276,17.642666,2967,66,-4,0.905,122.05159090909092
9022003700212/9022003700488,Stenröset (Uppsala),Stenhagens centrum (Uppsala),59.852678,17.564063,59.850824,17.558987,3287,61,-5,0.813,121.4695909090909
9022003700314/9022003700315,Lilla Vallskog (Uppsala),Ärna bro (Uppsala),59.919614,17.602901,59.9097,17.607728,2820,58,0,0.943,120.87545454545455
9022003700400/9022003700218,Lägerhyddsvägen (Uppsala),Lundellska skolan (Uppsala),59.839062,17.651041,59.838602,17.65123,3391,88,-19,0.779,120.07222727272728
9022003700552/9022003700566,Klockarängen (Uppsala),Seminariegatan (Uppsala),59.869618,17.613934,59.869618,17.613934,3136,50,-7,0.84,119.7381818181818
9022003700566/9022003700552,Seminariegatan (Uppsala),Klockarängen (Uppsala),59.869618,17.613934,59.869618,17.613934,3128,45,-6,0.84,119.43272727272728
9022003700313/9022003700314,Stora Vallskog (Uppsala),Lilla Vallskog (Uppsala),59.925814,17.59991,59.919614,17.602901,2820,36,0,0.93,119.20909090909092
9022003700591/9022003700110,Stadsbiblioteket (Uppsala),Saluhallen (Uppsala),59.861031,17.635638,59.859532,17.632414,3657,51,21,0.714,118.68627272727272
9022003700336/9022003700367,Kuggebro (Uppsala),Nämndemansvägen (Uppsala),59.832305,17.690761,59.820876,17.696998,3034,137,-20,0.858,118.326
9022003700218/9022003700572,Lundellska skolan (Uppsala),Polacksbacken (Uppsala),59.838602,17.65123,59.840257,17.647825,3391,88,-1,0.766,118.06845454545454
9022003700065/9022003700066,Slottsbacken (Uppsala),Segerstedthuset (Uppsala),59.85489,17.632428,59.852982,17.633394,3358,44,12,0.773,117.98790909090908
9022003700057/9022003700058,Apelgatan (Uppsala),Byggmästargatan (Uppsala),59.865955,17.672473,59.866159,17.668842,2686,50,1,0.964,117.69563636363637
9022003700017/9022003700016,Barkspadevägen (Uppsala),Linrepevägen (Uppsala),59.818051,17.633834,59.813073,17.63415,2685,68,0,0.963,117.52977272727273
9022003700581/9022003700139,Väderkvarnsgatan (Uppsala),Kvarntorget (Uppsala),59.864202,17.643918,59.866282,17.646693,3171,47,10,0.813,117.18286363636362
9022003700368/9022003700369,Tunabergsallén (Uppsala),Tuna backar (Uppsala),59.878229,17.622938,59.875571,17.624311,3235,51,0,0.795,116.90113636363635
9022003700213/9022003700212,Stenhällen (Uppsala),Stenröset (Uppsala),59.854891,17.56841,59.852678,17.564063,3287,55,6,0.778,116.24027272727272
9022003700169/9022003700170,Västertorg (Uppsala),Gnejsvägen (Uppsala),59.840677,17.602445,59.839828,17.596263,3559,46,7,0.717,115.99104545454546
9022003700021/9022003700572,Grindstugan (Uppsala),Polacksbacken (Uppsala),59.839989,17.63996,59.840257,17.647825,3386,154,-48,0.751,115.58572727272727
9022003700610/9022003700214,Hedensbergsvägen (Uppsala),Gatstenen (Uppsala),59.850917,17.572232,59.853822,17.571173,3287,57,-2,0.768,114.74618181818182
9022003700572/9022003700218,Polacksbacken (Uppsala),Lundellska skolan (Uppsala),59.840257,17.647825,59.838602,17.65123,3386,128,-34,0.744,114.50836363636364
9022003700369/9022003700368,Tuna backar (Uppsala),Tunabergsallén (Uppsala),59.875571,17.624311,59.878229,17.622938,3176,63,-2,0.793,114.48036363636365
9022003700146/9022003700541,Österängsgatan norra (Uppsala),Molngatan (Uppsala),59.866155,17.655148,59.86984,17.66312,4670,66,50,0.538,114.20272727272729
9022003700316/9022003700315,Ärna gård (Uppsala),Ärna bro (Uppsala),59.90406,17.610426,59.9097,17.607728,2753,30,-2,0.909,113.74895454545455
9022003700214/9022003700213,Gatstenen (Uppsala),Stenhällen (Uppsala),59.853822,17.571173,59.854891,17.56841,3287,29,6,0.758,113.25209090909091
9022003700310/9022003700311,Lytta (Uppsala),Ärentuna vägskäl (Uppsala),59.943833,17.591238,59.938321,17.593858,2679,33,0,0.927,112.88331818181818
9022003700536/9022003700104,Stenhagen (Uppsala),Flogsta centrum (Uppsala),59.848034,17.564211,59.852083,17.587641,3314,152,-19,0.749,112.82663636363635
9022003700315/9022003700314,Ärna bro (Uppsala),Lilla Vallskog (Uppsala),59.9097,17.607728,59.919614,17.602901,2736,62,-6,0.9,111.92727272727272
9022003700367/9022003700336,Nämndemansvägen (Uppsala),Kuggebro (Uppsala),59.820876,17.696998,59.832305,17.690761,3090,104,12,0.795,111.66136363636365
9022003700313/9022003700312,Stora Vallskog (Uppsala),Svista (Uppsala),59.925814,17.59991,59.932538,17.596624,2736,32,-1,0.897,111.55418181818182
9022003700142/9022003700143,Gränbyvägen (Uppsala),Tövädersgatan (Uppsala),59.873412,17.670873,59.872,17.667847,2616,58,-1,0.938,111.53672727272726
9022003700311/9022003700310,Ärentuna vägskäl (Uppsala),Lytta (Uppsala),59.938321,17.593858,59.943833,17.591238,2628,40,-1,0.93,111.09272727272727
9022003700212/9022003700213,Stenröset (Uppsala),Stenhällen (Uppsala),59.852678,17.564063,59.854891,17.56841,3185,59,18,0.762,110.31681818181819
9022003700169/9022003700166,Västertorg (Uppsala),Glimmervägen (Uppsala),59.840677,17.602445,59.840059,17.608263,3095,60,16,0.784,110.29454545454546
9022003700083/9022003700085,Morkullevägen (Uppsala),Entitparken (Uppsala),59.803049,17.644097,59.799628,17.644158,3463,40,12,0.7,110.18636363636362
9022003700314/9022003700313,Lilla Vallskog (Uppsala),Stora Vallskog (Uppsala),59.919614,17.602901,59.925814,17.59991,2736,44,-5,0.885,110.06181818181818
9022003700222/9022003700574,Kronparksgården (Uppsala),Ekudden (Uppsala),59.828995,17.651215,59.827178,17.654075,3386,41,16,0.714,109.8910909090909
9022003700143/9022003700541,Tövädersgatan (Uppsala),Molngatan (Uppsala),59.872,17.667847,59.86984,17.66312,2616,58,1,0.924,109.872
9022003700139/9022003700581,Kvarntorget (Uppsala),Väderkvarnsgatan (Uppsala),59.866282,17.646693,59.864202,17.643918,2701,131,0,0.894,109.75881818181819
9022003700259/9022003700539,Samariterhemmet (Uppsala),Strandbodgatan (Uppsala),59.855191,17.650096,59.853083,17.653834,3894,53,32,0.62,109.74
9022003700222/9022003700221,Kronparksgården (Uppsala),Gustaf Kjellbergs väg (Uppsala),59.828995,17.651215,59.831564,17.649877,3385,69,27,0.713,109.70477272727273
9022003700062/9022003700581,Vaksala torg (Uppsala),Väderkvarnsgatan (Uppsala),59.861884,17.645968,59.864202,17.643918,4654,82,79,0.518,109.58054545454546
9022003700393/9022003700392,Trasthagen (Uppsala),Svankärrsvägen (Uppsala),59.789335,17.645711,59.792518,17.643464,3326,46,12,0.722,109.15327272727272
9022003700312/9022003700313,Svista (Uppsala),Stora Vallskog (Uppsala),59.932538,17.596624,59.925814,17.59991,2820,40,6,0.844,108.18545454545455
9022003700162/9022003700369,Svartbäckens vårdcentral (Uppsala),Tuna backar (Uppsala),59.869091,17.628082,59.875571,17.624311,3176,108,27,0.748,107.98400000000001
9022003700387/9022003700388,Ulleråker norra (Uppsala),Hammarby kyrkogård (Uppsala),59.83276,17.642666,59.82776,17.644513,3030,78,-20,0.783,107.84045454545455
9022003700172/9022003700129,Skolgatan (Uppsala),Ekonomikum (Uppsala),59.863106,17.635574,59.860404,17.620003,3259,148,53,0.727,107.69513636363635
9022003700566/9022003700374,Seminariegatan (Uppsala),Gimogatan (Uppsala),59.869618,17.613934,59.868859,17.607715,3136,69,-18,0.754,107.47927272727271
9022003700012/9022003700013,Vackra Birgers väg (Uppsala),Bröderna Berwalds väg (Uppsala),59.807059,17.624963,59.810294,17.625407,2532,73,0,0.928,106.80436363636365
9022003700317/9022003700368,Lilla Myrby (Uppsala),Tunabergsallén (Uppsala),59.893152,17.615677,59.878229,17.622938,3141,205,-68,0.747,106.65122727272728
9022003191225/9022003191086,Terminal 4 (Arlanda) (Sigtuna),Terminal 2 -3 (Arlanda) (Sigtuna),59.64677,17.928548,59.64409,17.929886,3046,148,-43,0.769,106.47154545454546
9022003700013/9022003700014,Bröderna Berwalds väg (Uppsala),Gottsunda torg (Uppsala),59.810294,17.625407,59.811287,17.62694,2532,89,-3,0.92,105.88363636363637
9022003700139/9022003700137,Kvarntorget (Uppsala),Bureusgatan (Uppsala),59.866282,17.646693,59.870234,17.64725,3171,64,22,0.732,105.50781818181817
9022003700166/9022003700169,Glimmervägen (Uppsala),Västertorg (Uppsala),59.840059,17.608263,59.840677,17.602445,3062,66,-6,0.752,104.66472727272728
9022003700552/9022003700330,Klockarängen (Uppsala),Fyrishov (Uppsala),59.869618,17.613934,59.87118,17.626946,3128,98,-32,0.736,104.64581818181819
9022003700311/9022003700312,Ärentuna vägskäl (Uppsala),Svista (Uppsala),59.938321,17.593858,59.932538,17.596624,2679,33,3,0.857,104.35922727272727
9022003700221/9022003700222,Gustaf Kjellbergs väg (Uppsala),Kronparksgården (Uppsala),59.831564,17.649877,59.828995,17.651215,3386,46,23,0.676,104.04254545454546
9022003700011/9022003700010,Jenny Linds väg (Uppsala),Solistvägen (Uppsala),59.804633,17.628377,59.80303,17.628682,2685,37,-5,0.85,103.73863636363636
9022003700259/9022003700333,Samariterhemmet (Uppsala),Kungsängsesplanaden (Uppsala),59.855191,17.650096,59.850218,17.659028,3175,116,12,0.714,103.04318181818181
9022003700129/9022003700278,Ekonomikum (Uppsala),Hildur Ottelinsgatan (Uppsala),59.860404,17.620003,59.855766,17.607953,2478,120,3,0.913,102.837
9022003700143/9022003700142,Tövädersgatan (Uppsala),Gränbyvägen (Uppsala),59.872,17.667847,59.873412,17.670873,2509,57,-5,0.899,102.52686363636364
9022003700016/9022003700017,Linrepevägen (Uppsala),Barkspadevägen (Uppsala),59.813073,17.63415,59.818051,17.633834,2532,69,8,0.89,102.4309090909091
9022003700512/9022003700513,Uppsala Business Park östra (Uppsala),Uppsala Business Park västra (Uppsala),59.84974,17.708896,59.850242,17.700823,2575,82,3,0.87,101.82954545454545
9022003700011/9022003700012,Jenny Linds väg (Uppsala),Vackra Birgers väg (Uppsala),59.804633,17.628377,59.807059,17.624963,2532,56,-5,0.877,100.93472727272727
9022003700284/9022003700225,Ultunaallén (Uppsala),Campus Ultuna (Uppsala),59.813145,17.650874,59.815615,17.659121,2438,124,-7,0.91,100.84454545454545
9022003780538/9022003780530,Hovgården (Uppsala),Grönviken (Lindbacken) (Uppsala),59.924962,17.777197,59.918888,17.758186,2368,59,-1,0.932,100.31709090909092
9022003700013/9022003700012,Bröderna Berwalds väg (Uppsala),Vackra Birgers väg (Uppsala),59.810294,17.625407,59.807059,17.624963,2685,72,-15,0.821,100.19931818181817
9022003700001/9022003700064,Stora Torget (Uppsala),Trädgårdsgatan (Uppsala),59.858594,17.639199,59.857322,17.636399,5807,54,85,0.379,100.03877272727273
9022003700285/9022003700284,Holmvägen (Uppsala),Ultunaallén (Uppsala),59.80566,17.652581,59.813145,17.650874,2581,99,-15,0.847,99.3685
9022003700010/9022003700009,Solistvägen (Uppsala),Flöjtvägen (Uppsala),59.80303,17.628682,59.803482,17.631754,2685,77,-18,0.812,99.1009090909091
9022003780542/9022003780538,Grän vägskäl (Uppsala),Hovgården (Uppsala),59.931122,17.801034,59.924962,17.777197,2356,74,-4,0.921,98.63072727272728
9022003700146/9022003700062,Österängsgatan norra (Uppsala),Vaksala torg (Uppsala),59.866155,17.655148,59.861884,17.645968,2649,127,-6,0.819,98.61504545454545
9022003700141/9022003700142,Gränbystaden (Uppsala),Gränbyvägen (Uppsala),59.875371,17.675144,59.873412,17.670873,2616,74,0,0.828,98.45672727272726
9022003700213/9022003700214,Stenhällen (Uppsala),Gatstenen (Uppsala),59.854891,17.56841,59.853822,17.571173,3185,29,13,0.68,98.44545454545455
9022003700425/9022003780202,Brillinge (Uppsala),Skäve (Uppsala),59.878468,17.68214,59.890125,17.698234,2634,95,20,0.82,98.17636363636363
9022003700312/9022003700311,Svista (Uppsala),Ärentuna vägskäl (Uppsala),59.932538,17.596624,59.938321,17.593858,2628,33,4,0.821,98.07218181818182
9022003781224/9022003781221,Annelund (Enköping),Barkan (Enköping),59.645925,17.137809,59.646274,17.126402,2469,51,1,0.87,97.63772727272728
9022003700019/9022003700017,Valsätraskolan (Uppsala),Barkspadevägen (Uppsala),59.821549,17.628891,59.818051,17.633834,2685,45,6,0.8,97.63636363636364
9022003700014/9022003700013,Gottsunda torg (Uppsala),Bröderna Berwalds väg (Uppsala),59.811287,17.62694,59.810294,17.625407,2685,71,16,0.798,97.39227272727274
9022003700541/9022003700141,Molngatan (Uppsala),Gränbystaden (Uppsala),59.86984,17.66312,59.875371,17.675144,2672,137,17,0.8,97.16363636363637
9022003700051/9022003700052,Körvelgatan (Uppsala),Kummingatan (Uppsala),59.86282,17.693987,59.861295,17.689509,2363,55,0,0.903,96.9904090909091
9022003700012/9022003700011,Vackra Birgers väg (Uppsala),Jenny Linds väg (Uppsala),59.807059,17.624963,59.804633,17.628377,2685,68,-18,0.793,96.78204545454545
9022003700101/9022003700103,Ekebyhus (Uppsala),Sernanders väg (Uppsala),59.851643,17.603465,59.851181,17.59391,2914,42,16,0.73,96.69181818181819
9022003700322/9022003700129,Dalgatan (Uppsala),Ekonomikum (Uppsala),59.863128,17.613171,59.860404,17.620003,2493,135,-7,0.852,96.5470909090909
9022003700284/9022003700016,Ultunaallén (Uppsala),Linrepevägen (Uppsala),59.813145,17.650874,59.813073,17.63415,2488,153,-23,0.853,96.46654545454545
9022003700103/9022003700104,Sernanders väg (Uppsala),Flogsta centrum (Uppsala),59.851181,17.59391,59.852083,17.587641,2911,75,-21,0.729,96.45995454545454
9022003700103/9022003700101,Sernanders väg (Uppsala),Ekebyhus (Uppsala),59.851181,17.59391,59.851643,17.603465,3001,44,19,0.705,96.16840909090908
9022003779142/9022003780201,Jälla (Uppsala),Godegård (Uppsala),59.904062,17.716061,59.898092,17.708606,2521,58,5,0.839,96.14177272727272
9022003700017/9022003700019,Barkspadevägen (Uppsala),Valsätraskolan (Uppsala),59.818051,17.633834,59.821549,17.628891,2533,51,10,0.833,95.9085909090909
9022003780202/9022003780201,Skäve (Uppsala),Godegård (Uppsala),59.890125,17.698234,59.898092,17.708606,2601,43,10,0.81,95.76409090909092
9022003781216/9022003781210,Herrgården (Enköping),Enköping station,59.644577,17.103974,59.644447,17.086076,3021,239,-93,0.697,95.71077272727271
9022003781221/9022003781224,Barkan (Enköping),Annelund (Enköping),59.646274,17.126402,59.645925,17.137809,2313,37,3,0.909,95.56895454545455
9022003780201/9022003780202,Godegård (Uppsala),Skäve (Uppsala),59.898092,17.708606,59.890125,17.698234,2472,73,-11,0.85,95.5090909090909
9022003700072/9022003700166,Täljstenen (Uppsala),Glimmervägen (Uppsala),59.839678,17.613791,59.840059,17.608263,3573,45,0,0.588,95.49654545454544
9022003700278/9022003700619,Hildur Ottelinsgatan (Uppsala),Uppsala Rickombergavägen,59.855766,17.607953,59.853975,17.599682,2246,69,0,0.935,95.45500000000001
9022003780530/9022003780538,Grönviken (Lindbacken) (Uppsala),Hovgården (Uppsala),59.918888,17.758186,59.924962,17.777197,2425,60,0,0.863,95.12613636363636
9022003700104/9022003700610,Flogsta centrum (Uppsala),Hedensbergsvägen (Uppsala),59.852083,17.587641,59.850917,17.572232,3287,79,33,0.635,94.87477272727273
9022003700080/9022003700081,Spinnrocksvägen (Uppsala),August Södermans väg (Uppsala),59.818971,17.621868,59.815627,17.619529,2160,84,-1,0.964,94.64727272727274
9022003700141/9022003700541,Gränbystaden (Uppsala),Molngatan (Uppsala),59.875371,17.675144,59.86984,17.66312,2649,164,-41,0.786,94.64154545454545
9022003700513/9022003700512,Uppsala Business Park västra (Uppsala),Uppsala Business Park östra (Uppsala),59.850242,17.700823,59.84974,17.708896,2617,94,16,0.794,94.44990909090909
9022003700005/9022003700014,Bandstolsvägen (Uppsala),Gottsunda torg (Uppsala),59.813615,17.622219,59.811287,17.62694,2163,75,2,0.956,93.9921818181818
9022003700172/9022003700063,Skolgatan (Uppsala),Vaksalagatan (Uppsala),59.863106,17.635574,59.860707,17.643421,3976,66,60,0.52,93.97818181818182
9022003700014/9022003700087,Gottsunda torg (Uppsala),Fiolbacken (Uppsala),59.811287,17.62694,59.809365,17.6322,2163,157,0,0.954,93.79554545454545
9022003700009/9022003700010,Flöjtvägen (Uppsala),Solistvägen (Uppsala),59.803482,17.631754,59.80303,17.628682,2532,47,4,0.814,93.684
9022003700016/9022003700284,Linrepevägen (Uppsala),Ultunaallén (Uppsala),59.813073,17.63415,59.813145,17.650874,2422,163,-27,0.847,93.247
9022003779148/9022003779145,Lindbacken (Uppsala),Norrhagen (Uppsala),59.912363,17.738511,59.905941,17.718976,2442,85,7,0.84,93.24
9022003780538/9022003780542,Hovgården (Uppsala),Grän vägskäl (Uppsala),59.924962,17.777197,59.931122,17.801034,2390,85,-5,0.851,92.44954545454546
9022003700104/9022003700103,Flogsta centrum (Uppsala),Sernanders väg (Uppsala),59.852083,17.587641,59.851181,17.59391,3001,56,26,0.675,92.07613636363637
9022003700284/9022003700285,Ultunaallén (Uppsala),Holmvägen (Uppsala),59.813145,17.650874,59.80566,17.652581,2634,67,16,0.765,91.59136363636364
9022003700062/9022003700146,Vaksala torg (Uppsala),Österängsgatan norra (Uppsala),59.861884,17.645968,59.866155,17.655148,2672,103,32,0.752,91.33381818181819
9022003780202/9022003700425,Skäve (Uppsala),Brillinge (Uppsala),59.890125,17.698234,59.878468,17.68214,2440,103,15,0.821,91.05636363636363
9022003700340/9022003700339,Daneport (Uppsala),Ölandsresan (Uppsala),59.810996,17.70159,59.814161,17.7025,2154,92,-2,0.926,90.66381818181819
9022003700074/9022003700076,Norra Parkvägen (Uppsala),Malma Bergsväg (Uppsala),59.833082,17.61486,59.830161,17.617056,2163,81,-6,0.92,90.45272727272727
9022003700081/9022003700005,August Södermans väg (Uppsala),Bandstolsvägen (Uppsala),59.815627,17.619529,59.813615,17.622219,2163,48,-4,0.919,90.35440909090909
9022003700209/9022003700571,Herrhagens Byväg (Uppsala),Kiselvägen (Uppsala),59.855311,17.555814,59.851801,17.55438,2170,77,-5,0.915,90.25227272727274
9022003700142/9022003700141,Gränbyvägen (Uppsala),Gränbystaden (Uppsala),59.873412,17.670873,59.875371,17.675144,2509,111,-25,0.789,89.98186363636364
9022003781051/9022003781216,Stenvreten (Enköping),Herrgården (Enköping),59.645493,17.114703,59.644577,17.103974,2469,71,-6,0.8,89.7818181818182
9022003700619/9022003700104,Uppsala Rickombergavägen,Flogsta centrum (Uppsala),59.853975,17.599682,59.852083,17.587641,2246,88,0,0.878,89.63581818181818
9022003781210/9022003781216,Enköping station,Herrgården (Enköping),59.644447,17.086076,59.644577,17.103974,2860,145,46,0.684,88.92
9022003700104/9022003700278,Flogsta centrum (Uppsala),Hildur Ottelinsgatan (Uppsala),59.852083,17.587641,59.855766,17.607953,2571,206,-62,0.759,88.6995
9022003781232/9022003781229,Blåhäll (Enköping),Östertorp (Enköping),59.655565,17.190878,59.653015,17.170303,2100,52,1,0.923,88.10454545454546
9022003700600/9022003700063,Uppsala Centralstationen (Uppsala),Vaksalagatan (Uppsala),59.858683,17.64372,59.860707,17.643421,5732,63,118,0.338,88.06436363636365
9022003700073/9022003700072,Kvickstensvägen (Uppsala),Täljstenen (Uppsala),59.835991,17.612253,59.839678,17.613791,2116,80,-7,0.915,88.00636363636364
9022003700541/9022003700143,Molngatan (Uppsala),Tövädersgatan (Uppsala),59.86984,17.66312,59.872,17.667847,2509,88,-27,0.769,87.70095454545455
9022003700008/9022003700051,Jordgubbsgatan (Uppsala),Körvelgatan (Uppsala),59.864386,17.701842,59.86282,17.693987,2363,91,-18,0.815,87.53840909090908
9022003781221/9022003781051,Barkan (Enköping),Stenvreten (Enköping),59.646274,17.126402,59.645493,17.114703,2469,44,8,0.78,87.53727272727274
9022003700278/9022003700129,Hildur Ottelinsgatan (Uppsala),Ekonomikum (Uppsala),59.855766,17.607953,59.860404,17.620003,2490,169,-42,0.773,87.48954545454546
9022003700057/9022003700200,Apelgatan (Uppsala),Gröna gatan (Uppsala),59.865955,17.672473,59.867249,17.677473,2116,61,1,0.909,87.42927272727273
9022003700277/9022003700141,Kamomillgatan (Uppsala),Gränbystaden (Uppsala),59.872691,17.682422,59.875371,17.675144,2090,165,2,0.919,87.305
9022003779142/9022003779145,Jälla (Uppsala),Norrhagen (Uppsala),59.904062,17.716061,59.905941,17.718976,2509,28,5,0.765,87.24477272727273
9022003700087/9022003700014,Fiolbacken (Uppsala),Gottsunda torg (Uppsala),59.809365,17.6322,59.811287,17.62694,2112,137,4,0.908,87.168
9022003700288/9022003700289,Ekolnsvägen norra (Uppsala),Sunnerstabacken (Uppsala),59.793422,17.657071,59.790371,17.658291,2129,50,-2,0.9,87.09545454545454
9022003700289/9022003700288,Sunnerstabacken (Uppsala),Ekolnsvägen norra (Uppsala),59.790371,17.658291,59.793422,17.657071,2207,55,-6,0.865,86.77522727272726
9022003700129/9022003700602,Ekonomikum (Uppsala),Götgatan (Uppsala),59.860404,17.620003,59.864353,17.627252,2172,109,-12,0.876,86.48509090909091
9022003700342/9022003700340,Gotlandsresan (Uppsala),Daneport (Uppsala),59.808874,17.696817,59.810996,17.70159,2154,72,0,0.883,86.45372727272728
9022003700076/9022003700077,Malma Bergsväg (Uppsala),Svamptorget (Uppsala),59.830161,17.617056,59.826146,17.618479,2163,43,6,0.878,86.32336363636364
9022003781237/9022003781233,Vällinge (Enköping),Sneby (Enköping),59.658907,17.220129,59.656964,17.206192,2099,43,0,0.904,86.24981818181818
9022003700367/9022003700338,Nämndemansvägen (Uppsala),Lapplandsresan (Uppsala),59.820876,17.696998,59.816257,17.699161,2102,124,0,0.902,86.182
9022003191719/9022003191718,Stockholm Odenplan,Stockholm city,59.343362,18.045933,59.331156,18.059048,1894,154,0,1,86.0909090909091
9022003781233/9022003781232,Sneby (Enköping),Blåhäll (Enköping),59.656964,17.206192,59.655565,17.190878,2106,38,1,0.897,85.86736363636365
9022003700338/9022003700339,Lapplandsresan (Uppsala),Ölandsresan (Uppsala),59.816257,17.699161,59.814161,17.7025,2102,42,0,0.898,85.79981818181818
9022003781229/9022003781226,Östertorp (Enköping),Varghällar (Enköping),59.653015,17.170303,59.650515,17.158637,2106,39,1,0.896,85.77163636363638
9022003779145/9022003779142,Norrhagen (Uppsala),Jälla (Uppsala),59.905941,17.718976,59.904062,17.716061,2491,28,-6,0.756,85.5998181818182
9022003700146/9022003700058,Österängsgatan norra (Uppsala),Byggmästargatan (Uppsala),59.866155,17.655148,59.866159,17.668842,2116,183,-10,0.889,85.50563636363637
9022003700130/9022003700129,Studentstaden (Uppsala),Ekonomikum (Uppsala),59.857678,17.613232,59.860404,17.620003,2171,123,-17,0.866,85.45845454545454
9022003700115/9022003700117,Regins väg (Uppsala),Valhalls väg (Uppsala),59.894743,17.636974,59.892529,17.642552,2020,81,0,0.927,85.11545454545454
9022003700081/9022003700080,August Södermans väg (Uppsala),Spinnrocksvägen (Uppsala),59.815627,17.619529,59.818971,17.621868,2112,69,5,0.886,85.056
9022003700488/9022003700571,Stenhagens centrum (Uppsala),Kiselvägen (Uppsala),59.850824,17.558987,59.851801,17.55438,2246,81,-6,0.833,85.04172727272727
9022003700118/9022003700119,Huges väg (Uppsala),Topeliusgatan (Uppsala),59.892019,17.647562,59.889566,17.64639,2020,63,2,0.925,84.93181818181819
9022003780201/9022003779142,Godegård (Uppsala),Jälla (Uppsala),59.898092,17.708606,59.904062,17.716061,2406,67,-19,0.771,84.31936363636363
9022003781226/9022003781229,Varghällar (Enköping),Östertorp (Enköping),59.650515,17.158637,59.653015,17.170303,2046,30,3,0.906,84.258
9022003700074/9022003700073,Norra Parkvägen (Uppsala),Kvickstensvägen (Uppsala),59.833082,17.61486,59.835991,17.612253,2116,39,6,0.875,84.1590909090909
9022003700130/9022003700278,Studentstaden (Uppsala),Hildur Ottelinsgatan (Uppsala),59.857678,17.613232,59.855766,17.607953,2265,64,9,0.815,83.90795454545454
9022003700078/9022003700080,Björklundavägen (Uppsala),Spinnrocksvägen (Uppsala),59.821073,17.61658,59.818971,17.621868,2163,125,-12,0.853,83.86540909090908
9022003781172/9022003781166,Kommunhuset (Enköping),Lasarettet (Enköping),59.631853,17.072124,59.629217,17.068019,2373,114,0,0.776,83.70218181818181
9022003700571/9022003700488,Kiselvägen (Uppsala),Stenhagens centrum (Uppsala),59.851801,17.55438,59.850824,17.558987,2170,69,-12,0.848,83.64363636363636
9022003700078/9022003700077,Björklundavägen (Uppsala),Svamptorget (Uppsala),59.821073,17.61658,59.826146,17.618479,2116,68,9,0.869,83.58200000000001
9022003700278/9022003700104,Hildur Ottelinsgatan (Uppsala),Flogsta centrum (Uppsala),59.855766,17.607953,59.852083,17.587641,2551,243,-87,0.72,83.48727272727272
9022003700532/9022003700349,Auroragatan (Uppsala),Moskén (Uppsala),59.871149,17.630462,59.873076,17.637193,1958,97,2,0.937,83.393
9022003700058/9022003700146,Byggmästargatan (Uppsala),Österängsgatan norra (Uppsala),59.866159,17.668842,59.866155,17.655148,2161,182,28,0.843,82.80559090909091
9022003700369/9022003700162,Tuna backar (Uppsala),Svartbäckens vårdcentral (Uppsala),59.875571,17.624311,59.869091,17.628082,3235,65,51,0.563,82.78659090909089
9022003781410/9022003781224,Enköpings företagspark (Enköping),Annelund (Enköping),59.649555,17.149872,59.645925,17.137809,2106,50,-1,0.862,82.5169090909091
9022003700052/9022003700051,Kummingatan (Uppsala),Körvelgatan (Uppsala),59.861295,17.689509,59.86282,17.693987,2404,37,7,0.755,82.50090909090909
9022003700200/9022003700636,Gröna gatan (Uppsala),Uppsala Årsta torg,59.867249,17.677473,59.865787,17.681747,2116,89,15,0.857,82.42781818181818
9022003781232/9022003781233,Blåhäll (Enköping),Sneby (Enköping),59.655565,17.190878,59.656964,17.206192,2051,31,4,0.882,82.22645454545456
9022003781233/9022003781237,Sneby (Enköping),Vällinge (Enköping),59.656964,17.206192,59.658907,17.220129,2051,30,4,0.882,82.22645454545456
9022003700602/9022003700129,Götgatan (Uppsala),Ekonomikum (Uppsala),59.864353,17.627252,59.860404,17.620003,2246,85,18,0.805,82.18318181818182
9022003700275/9022003700277,Timjansgatan (Uppsala),Kamomillgatan (Uppsala),59.87089,17.690998,59.872691,17.682422,2090,103,8,0.865,82.175
9022003700077/9022003700078,Svamptorget (Uppsala),Björklundavägen (Uppsala),59.826146,17.618479,59.821073,17.61658,2157,61,-11,0.836,81.966
9022003781224/9022003781410,Annelund (Enköping),Enköpings företagspark (Enköping),59.645925,17.137809,59.649555,17.149872,2051,52,7,0.879,81.94677272727273
9022003700225/9022003700284,Campus Ultuna (Uppsala),Ultunaallén (Uppsala),59.815615,17.659121,59.813145,17.650874,2493,88,26,0.723,81.92904545454545
9022003700349/9022003700347,Moskén (Uppsala),Sandels gata (Uppsala),59.873076,17.637193,59.883983,17.635381,1974,131,-10,0.913,81.921
9022003700117/9022003700118,Valhalls väg (Uppsala),Huges väg (Uppsala),59.892529,17.642552,59.892019,17.647562,2020,42,1,0.889,81.62636363636364
9022003779148/9022003780530,Lindbacken (Uppsala),Grönviken (Lindbacken) (Uppsala),59.912363,17.738511,59.918888,17.758186,2425,74,16,0.74,81.56818181818183
9022003700446/9022003700342,Smålandsvägen (Uppsala),Gotlandsresan (Uppsala),59.806097,17.69142,59.808874,17.696817,2154,90,-5,0.833,81.55827272727272
9022003700411/9022003700412,Gottsundavägen (Uppsala),Djurgårdsvägen (Uppsala),59.808987,17.608172,59.813879,17.61086,2043,64,-9,0.878,81.53427272727272
9022003700558/9022003700244,Fullerö (Uppsala),Trekanten (Uppsala),59.937454,17.648417,59.94851,17.662203,1984,84,0,0.904,81.52436363636365
9022003700080/9022003700078,Spinnrocksvägen (Uppsala),Björklundavägen (Uppsala),59.818971,17.621868,59.821073,17.61658,2112,125,-21,0.848,81.408
9022003700425/9022003700141,Brillinge (Uppsala),Gränbystaden (Uppsala),59.878468,17.68214,59.875371,17.675144,2440,81,-28,0.734,81.40727272727273
9022003781226/9022003781410,Varghällar (Enköping),Enköpings företagspark (Enköping),59.650515,17.158637,59.649555,17.149872,2106,18,1,0.85,81.36818181818182
9022003700006/9022003700009,Cellovägen (Uppsala),Flöjtvägen (Uppsala),59.805633,17.637806,59.803482,17.631754,2532,117,-41,0.706,81.25418181818182
9022003700347/9022003700345,Sandels gata (Uppsala),Bågspännarvägen (Uppsala),59.883983,17.635381,59.890638,17.638445,1958,79,-1,0.912,81.168
9022003700119/9022003700121,Topeliusgatan (Uppsala),Värnlundsgatan (Uppsala),59.889566,17.64639,59.885986,17.643012,2020,65,8,0.884,81.16727272727272
9022003700288/9022003700287,Ekolnsvägen norra (Uppsala),Lärkvägen (Uppsala),59.793422,17.657071,59.796862,17.655747,2207,114,-25,0.808,81.05709090909092
9022003700248/9022003700247,Segersberg (Uppsala),Hamra (Uppsala),59.930787,17.641035,59.935115,17.645496,1990,38,-2,0.894,80.86636363636363
9022003700121/9022003700122,Värnlundsgatan (Uppsala),Ferlinsgatan (Uppsala),59.885986,17.643012,59.881781,17.645835,2020,76,10,0.879,80.70818181818181
9022003700339/9022003700340,Ölandsresan (Uppsala),Daneport (Uppsala),59.814161,17.7025,59.810996,17.70159,2099,94,-16,0.845,80.62068181818181
9022003781051/9022003781221,Stenvreten (Enköping),Barkan (Enköping),59.645493,17.114703,59.646274,17.126402,2313,37,11,0.766,80.53445454545455
9022003700512/9022003700527,Uppsala Business Park östra (Uppsala),Uppsala Business Park Norra (Uppsala),59.84974,17.708896,59.85315,17.710251,2625,113,-48,0.674,80.42045454545455
9022003781002/9022003781172,Gustav Adolfs plan (Enköping),Kommunhuset (Enköping),59.636758,17.075465,59.631853,17.072124,2114,180,-6,0.834,80.13981818181819
9022003700278/9022003700130,Hildur Ottelinsgatan (Uppsala),Studentstaden (Uppsala),59.855766,17.607953,59.857678,17.613232,2187,52,11,0.805,80.02431818181819
9022003700340/9022003700342,Daneport (Uppsala),Gotlandsresan (Uppsala),59.810996,17.70159,59.808874,17.696817,2099,80,-15,0.838,79.95281818181817
9022003781229/9022003781232,Östertorp (Enköping),Blåhäll (Enköping),59.653015,17.170303,59.655565,17.190878,2051,49,8,0.857,79.89577272727273
9022003700126/9022003700581,Portalgatan (Uppsala),Väderkvarnsgatan (Uppsala),59.867586,17.63948,59.864202,17.643918,2020,93,12,0.87,79.88181818181818
9022003700251/9022003700250,Bredåkers gård (Uppsala),Ensta (Uppsala),59.912144,17.643313,59.919881,17.642185,1974,49,-5,0.885,79.40863636363638
9022003700129/9022003700322,Ekonomikum (Uppsala),Dalgatan (Uppsala),59.860404,17.620003,59.863128,17.613171,2522,52,22,0.692,79.32836363636363
9022003700247/9022003700248,Hamra (Uppsala),Segersberg (Uppsala),59.935115,17.645496,59.930787,17.641035,1938,39,-3,0.9,79.28181818181818
9022003700250/9022003700249,Ensta (Uppsala),Enstalund (Uppsala),59.919881,17.642185,59.924818,17.641617,1990,34,-2,0.875,79.14772727272727
9022003700104/9022003700619,Flogsta centrum (Uppsala),Uppsala Rickombergavägen,59.852083,17.587641,59.853975,17.599682,2171,77,18,0.802,79.14281818181819
9022003779145/9022003779148,Norrhagen (Uppsala),Lindbacken (Uppsala),59.905941,17.718976,59.912363,17.738511,2461,127,-54,0.707,79.0875909090909
9022003700412/9022003700413,Djurgårdsvägen (Uppsala),Källbovägen (Uppsala),59.813879,17.61086,59.816422,17.612014,2043,33,4,0.85,78.9340909090909
9022003700129/9022003700130,Ekonomikum (Uppsala),Studentstaden (Uppsala),59.860404,17.620003,59.857678,17.613232,2246,89,-26,0.771,78.71209090909092
9022003700549/9022003700323,Börjegatan (Uppsala),Norrlandsgatan (Uppsala),59.862598,17.613838,59.860709,17.608184,1784,68,0,0.97,78.65818181818182
9022003700251/9022003700252,Bredåkers gård (Uppsala),Vittulsbergsvägen (Uppsala),59.912144,17.643313,59.905647,17.643133,1922,52,-5,0.897,78.36518181818181
9022003700619/9022003700278,Uppsala Rickombergavägen,Hildur Ottelinsgatan (Uppsala),59.853975,17.599682,59.855766,17.607953,2171,104,-24,0.794,78.35336363636364
9022003700117/9022003700115,Valhalls väg (Uppsala),Regins väg (Uppsala),59.892529,17.642552,59.894743,17.636974,1994,93,-13,0.864,78.30981818181819
9022003700119/9022003700118,Topeliusgatan (Uppsala),Huges väg (Uppsala),59.889566,17.64639,59.892019,17.647562,1994,61,7,0.863,78.21918181818182
9022003700443/9022003700550,Solrosgatan (Uppsala),Bolandsparken (Uppsala),59.857708,17.658856,59.858065,17.673619,1899,110,-10,0.905,78.11795454545454
9022003700073/9022003700074,Kvickstensvägen (Uppsala),Norra Parkvägen (Uppsala),59.835991,17.612253,59.833082,17.61486,2163,27,6,0.794,78.06463636363637
9022003700114/9022003700252,Gamla Uppsala (Uppsala),Vittulsbergsvägen (Uppsala),59.896589,17.636629,59.905647,17.643133,1958,89,-12,0.875,77.875
9022003780530/9022003779148,Grönviken (Lindbacken) (Uppsala),Lindbacken (Uppsala),59.918888,17.758186,59.912363,17.738511,2350,109,-42,0.729,77.87045454545454
9022003700118/9022003700117,Huges väg (Uppsala),Valhalls väg (Uppsala),59.892019,17.647562,59.892529,17.642552,1994,45,-7,0.859,77.85663636363637
9022003700052/9022003700450,Kummingatan (Uppsala),Mistelgatan södra (Uppsala),59.861295,17.689509,59.85862,17.680665,1838,112,-4,0.931,77.78081818181819
9022003700607/9022003700115,Kungshögarna (Uppsala),Regins väg (Uppsala),59.897444,17.635157,59.894743,17.636974,2020,65,0,0.847,77.77
9022003700122/9022003700121,Ferlinsgatan (Uppsala),Värnlundsgatan (Uppsala),59.881781,17.645835,59.885986,17.643012,1994,113,-17,0.858,77.766
9022003700010/9022003700011,Solistvägen (Uppsala),Jenny Linds väg (Uppsala),59.80303,17.628682,59.804633,17.628377,2532,32,16,0.673,77.45618181818182
9022003700349/9022003700532,Moskén (Uppsala),Auroragatan (Uppsala),59.873076,17.637193,59.871149,17.630462,1923,73,-2,0.886,77.44445454545455
9022003700389/9022003700388,Genetikvägen (Uppsala),Hammarby kyrkogård (Uppsala),59.816416,17.648737,59.82776,17.644513,1787,111,0,0.953,77.40959090909091
9022003700244/9022003700558,Trekanten (Uppsala),Fullerö (Uppsala),59.94851,17.662203,59.937454,17.648417,1938,100,5,0.878,77.34381818181818
9022003700141/9022003700425,Gränbystaden (Uppsala),Brillinge (Uppsala),59.875371,17.675144,59.878468,17.68214,2585,60,30,0.657,77.1975
9022003700347/9022003700349,Sandels gata (Uppsala),Moskén (Uppsala),59.883983,17.635381,59.873076,17.637193,1923,164,-19,0.882,77.09481818181818
9022003700636/9022003700200,Uppsala Årsta torg,Gröna gatan (Uppsala),59.865787,17.681747,59.867249,17.677473,2161,76,21,0.784,77.01018181818182
9022003700076/9022003700074,Malma Bergsväg (Uppsala),Norra Parkvägen (Uppsala),59.830161,17.617056,59.833082,17.61486,2094,39,8,0.808,76.9069090909091
9022003700058/9022003700057,Byggmästargatan (Uppsala),Apelgatan (Uppsala),59.866159,17.668842,59.865955,17.672473,2627,32,4,0.644,76.89945454545455
9022003781166/9022003781172,Lasarettet (Enköping),Kommunhuset (Enköping),59.629217,17.068019,59.631853,17.072124,2616,63,20,0.646,76.81527272727273
9022003700579/9022003700019,Slädvägen (Uppsala),Valsätraskolan (Uppsala),59.823037,17.626494,59.821549,17.628891,2685,21,12,0.629,76.76659090909091
9022003700247/9022003700558,Hamra (Uppsala),Fullerö (Uppsala),59.935115,17.645496,59.937454,17.648417,1990,26,2,0.848,76.70545454545454
9022003700323/9022003700043,Norrlandsgatan (Uppsala),Stabby prästgård (Uppsala),59.860709,17.608184,59.863263,17.603931,1784,55,-3,0.945,76.63090909090909
9022003700414/9022003700579,Martallsvägen (Uppsala),Slädvägen (Uppsala),59.819664,17.616504,59.823037,17.626494,2075,88,-15,0.812,76.58636363636364
9022003700353/9022003700354,Källarbäcksvägen (Uppsala),Rörbäcksvägen (Uppsala),59.826529,17.693449,59.823215,17.693511,1794,55,2,0.938,76.48963636363636
9022003700204/9022003700203,Möllersvärdsgatan (Uppsala),Hanselligatan (Uppsala),59.851727,17.696839,59.852417,17.693808,2266,26,9,0.742,76.426
9022003700250/9022003700251,Ensta (Uppsala),Bredåkers gård (Uppsala),59.919881,17.642185,59.912144,17.643313,1938,62,-9,0.866,76.28672727272728
9022003700110/9022003700094,Saluhallen (Uppsala),Kyrkogårdsgatan (Uppsala),59.859532,17.632414,59.857313,17.62601,1873,106,12,0.896,76.28218181818183
9022003700203/9022003700204,Hanselligatan (Uppsala),Möllersvärdsgatan (Uppsala),59.852417,17.693808,59.851727,17.696839,2260,25,9,0.742,76.22363636363637
9022003700249/9022003700248,Enstalund (Uppsala),Segersberg (Uppsala),59.924818,17.641617,59.930787,17.641035,1990,31,-4,0.842,76.16272727272727
9022003700123/9022003700124,Heidenstamstorg (Uppsala),Kantorsgatan (Uppsala),59.877638,17.645534,59.874129,17.640858,2020,108,20,0.829,76.11727272727272
9022003700123/9022003700122,Heidenstamstorg (Uppsala),Ferlinsgatan (Uppsala),59.877638,17.645534,59.881781,17.645835,1994,79,-6,0.839,76.0439090909091
9022003700321/9022003700549,Wallingatan (Uppsala),Börjegatan (Uppsala),59.864739,17.618793,59.862598,17.613838,1784,70,-4,0.937,75.98218181818183
9022003700141/9022003700277,Gränbystaden (Uppsala),Kamomillgatan (Uppsala),59.875371,17.675144,59.872691,17.682422,1998,127,17,0.836,75.92399999999999
9022003700157/9022003700159,Fjärdhundragatan (Uppsala),Torbjörnsgatan (Uppsala),59.878713,17.617839,59.87541,17.622927,1804,66,0,0.925,75.85000000000001
9022003700621/9022003700110,Uppsala Odensgatan,Saluhallen (Uppsala),59.86205,17.625644,59.859532,17.632414,1794,128,-3,0.928,75.67418181818182
9022003700009/9022003700006,Flöjtvägen (Uppsala),Cellovägen (Uppsala),59.803482,17.631754,59.805633,17.637806,2680,123,-78,0.621,75.6490909090909
9022003700100/9022003700491,Nordengatan (Uppsala),Tartugatan (Uppsala),59.850913,17.606977,59.852335,17.613906,1899,95,13,0.875,75.5284090909091
9022003191159/9022003191042,Versailles (Arlanda) (Sigtuna),Terminal 5 (Arlanda) (Sigtuna),59.648991,17.935553,59.651623,17.933804,1904,115,-9,0.87,75.29454545454546
9022003700124/9022003700125,Kantorsgatan (Uppsala),Djäknegatan (Uppsala),59.874129,17.640858,59.87136,17.639224,2020,77,16,0.82,75.29090909090908
9022003700491/9022003700100,Tartugatan (Uppsala),Nordengatan (Uppsala),59.852335,17.613906,59.850913,17.606977,1873,94,9,0.884,75.26054545454546
9022003700035/9022003700621,Luthagsesplanaden (Uppsala),Uppsala Odensgatan,59.862582,17.624781,59.86205,17.625644,1794,68,-5,0.92,75.02181818181819
9022003700125/9022003700532,Djäknegatan (Uppsala),Auroragatan (Uppsala),59.87136,17.639224,59.871149,17.630462,1727,127,-5,0.955,74.9675
9022003700345/9022003700347,Bågspännarvägen (Uppsala),Sandels gata (Uppsala),59.890638,17.638445,59.883983,17.635381,1923,109,-17,0.857,74.90959090909091
9022003700121/9022003700119,Värnlundsgatan (Uppsala),Topeliusgatan (Uppsala),59.885986,17.643012,59.889566,17.64639,1978,71,-13,0.833,74.89427272727272
9022003700336/9022003700353,Kuggebro (Uppsala),Källarbäcksvägen (Uppsala),59.832305,17.690761,59.826529,17.693449,1794,69,6,0.915,74.61409090909092
9022003700160/9022003700162,Sköldungagatan (Uppsala),Svartbäckens vårdcentral (Uppsala),59.873208,17.625754,59.869091,17.628082,1802,113,-9,0.91,74.53727272727272
9022003700567/9022003700613,Nyby köpcentrum (Uppsala),Uppsala Takpannegatan,59.886218,17.661694,59.884258,17.670212,1819,100,9,0.9,74.41363636363637
9022003779087/9022003700536,Kvarnbolund (Uppsala),Stenhagen (Uppsala),59.845552,17.553071,59.848034,17.564211,2536,62,-12,0.645,74.35090909090908
9022003700387/9022003700021,Ulleråker norra (Uppsala),Grindstugan (Uppsala),59.83276,17.642666,59.839989,17.63996,1747,122,2,0.934,74.1680909090909
9022003700249/9022003700250,Enstalund (Uppsala),Ensta (Uppsala),59.924818,17.641617,59.919881,17.642185,1938,39,-7,0.841,74.08445454545455
9022003700413/9022003700414,Källbovägen (Uppsala),Martallsvägen (Uppsala),59.816422,17.612014,59.819664,17.616504,2043,97,-24,0.795,73.82659090909091
9022003700285/9022003700083,Holmvägen (Uppsala),Morkullevägen (Uppsala),59.80566,17.652581,59.803049,17.644097,1788,88,8,0.907,73.71436363636363
9022003700320/9022003700321,Sverkerskolan (Uppsala),Wallingatan (Uppsala),59.86472,17.620773,59.864739,17.618793,1784,62,6,0.906,73.46836363636363
9022003700444/9022003700445,Klarbärsgatan (Uppsala),Hjortrongatan (Uppsala),59.860323,17.707805,59.86317,17.708985,1838,87,-8,0.879,73.43645454545455
9022003700401/9022003700547,Kungshörnet (Uppsala),Stålgatan södra (Uppsala),59.844531,17.666277,59.845717,17.67382,1735,76,0,0.931,73.42204545454545
9022003700101/9022003700100,Ekebyhus (Uppsala),Nordengatan (Uppsala),59.851643,17.603465,59.850913,17.606977,1899,94,16,0.85,73.37045454545454
9022003730086/9022003780050,Knivsta Centralvägen,Knivsta station (Knivsta),59.73055,17.786192,59.727162,17.786418,2322,107,-23,0.695,73.3540909090909
9022003700581/9022003700126,Väderkvarnsgatan (Uppsala),Portalgatan (Uppsala),59.864202,17.643918,59.867586,17.63948,1992,70,7,0.809,73.25127272727273
9022003700208/9022003700209,Stenhagenskolan (Uppsala),Herrhagens Byväg (Uppsala),59.857704,17.562829,59.855311,17.555814,2170,101,0,0.742,73.18818181818182
9022003700155/9022003700157,Flottörgatan (Uppsala),Fjärdhundragatan (Uppsala),59.881423,17.612039,59.878713,17.617839,1804,106,8,0.885,72.57000000000001
9022003700014/9022003700005,Gottsunda torg (Uppsala),Bandstolsvägen (Uppsala),59.811287,17.62694,59.813615,17.622219,2112,69,22,0.755,72.48
9022003700137/9022003700126,Bureusgatan (Uppsala),Portalgatan (Uppsala),59.870234,17.64725,59.867586,17.63948,1727,141,0,0.922,72.37700000000001
9022003700153/9022003700155,Bärbyparken (Uppsala),Flottörgatan (Uppsala),59.884482,17.614813,59.881423,17.612039,1804,47,4,0.882,72.324
9022003700354/9022003700353,Rörbäcksvägen (Uppsala),Källarbäcksvägen (Uppsala),59.823215,17.693511,59.826529,17.693449,1818,43,5,0.875,72.30681818181819
9022003700051/9022003700008,Körvelgatan (Uppsala),Jordgubbsgatan (Uppsala),59.86282,17.693987,59.864386,17.701842,2410,140,-67,0.66,72.3
9022003700077/9022003700076,Svamptorget (Uppsala),Malma Bergsväg (Uppsala),59.826146,17.618479,59.830161,17.617056,2116,53,17,0.75,72.13636363636364
9022003781216/9022003781051,Herrgården (Enköping),Stenvreten (Enköping),59.644577,17.103974,59.645493,17.114703,2313,50,22,0.686,72.12354545454546
9022003700001/9022003700062,Stora Torget (Uppsala),Vaksala torg (Uppsala),59.858594,17.639199,59.861884,17.645968,3870,91,125,0.41,72.12272727272726
9022003700613/9022003700255,Uppsala Takpannegatan,Marknadsgatan (Uppsala),59.884258,17.670212,59.879833,17.674519,1819,83,-8,0.872,72.09854545454546
9022003779096/9022003779094,"Årsta vägskäl, v. 282 (Uppsala)",Kumla (Uppsala),59.844318,17.73965,59.84544,17.727368,1711,85,3,0.926,72.01754545454546
9022003705050/9022003705052,Lilla Hagalund (Bålsta) (Håbo),Medborgarhuset (Bålsta) (Håbo),59.572541,17.521592,59.576376,17.511858,2027,72,12,0.781,71.9585
9022003700360/9022003700361,Fiskgjusevägen (Uppsala),Hultvägen (Uppsala),59.820076,17.70888,59.818239,17.714855,1809,53,-7,0.875,71.94886363636364
9022003700021/9022003700218,Grindstugan (Uppsala),Lundellska skolan (Uppsala),59.839989,17.63996,59.838602,17.65123,1735,218,11,0.911,71.84477272727273
9022003700546/9022003700547,Rapsgatan (Uppsala),Stålgatan södra (Uppsala),59.843842,17.688827,59.845717,17.67382,1851,93,-4,0.853,71.76831818181819
9022003705052/9022003705054,Medborgarhuset (Bålsta) (Håbo),Gransäterskolan (Bålsta) (Håbo),59.576376,17.511858,59.582287,17.508174,1864,59,7,0.845,71.59454545454545
9022003700636/9022003700256,Uppsala Årsta torg,Svärdsliljegatan (Uppsala),59.865787,17.681747,59.872624,17.6789,1713,100,-5,0.917,71.40095454545454
9022003700095/9022003700094,Kungsgärdets vårdcentral (Uppsala),Kyrkogårdsgatan (Uppsala),59.85601,17.621513,59.857313,17.62601,1894,92,-16,0.829,71.36936363636363
9022003700491/9022003700095,Tartugatan (Uppsala),Kungsgärdets vårdcentral (Uppsala),59.852335,17.613906,59.85601,17.621513,1899,147,-28,0.826,71.29881818181818
9022003700532/9022003700162,Auroragatan (Uppsala),Svartbäckens vårdcentral (Uppsala),59.871149,17.630462,59.869091,17.628082,1923,82,10,0.815,71.23840909090909
9022003700356/9022003700358,Bonadsvägen (Uppsala),Sävja kyrka (Uppsala),59.818737,17.690869,59.820667,17.703387,1794,108,10,0.873,71.18918181818182
9022003700361/9022003700362,Hultvägen (Uppsala),Backmovägen (Uppsala),59.818239,17.714855,59.815895,17.717948,1806,42,-2,0.867,71.17281818181819
9022003700252/9022003700251,Vittulsbergsvägen (Uppsala),Bredåkers gård (Uppsala),59.905647,17.643133,59.912144,17.643313,2005,63,-17,0.78,71.08636363636364
9022003700083/9022003700285,Morkullevägen (Uppsala),Holmvägen (Uppsala),59.803049,17.644097,59.80566,17.652581,1721,110,1,0.908,71.03036363636365
9022003700122/9022003700123,Ferlinsgatan (Uppsala),Heidenstamstorg (Uppsala),59.881781,17.645835,59.877638,17.645534,2020,120,-36,0.773,70.97545454545454
9022003779093/9022003780196,Uppsala Business Park södra (Uppsala),Viktoria (Uppsala),59.845819,17.70439,59.846117,17.709832,1696,54,1,0.918,70.76945454545455
9022003700613/9022003700567,Uppsala Takpannegatan,Nyby köpcentrum (Uppsala),59.884258,17.670212,59.886218,17.661694,1726,119,9,0.902,70.766
9022003700248/9022003700249,Segersberg (Uppsala),Enstalund (Uppsala),59.930787,17.641035,59.924818,17.641617,1938,47,-11,0.8,70.47272727272728
9022003700558/9022003700247,Fullerö (Uppsala),Hamra (Uppsala),59.937454,17.648417,59.935115,17.645496,1938,21,3,0.8,70.47272727272728
9022003700360/9022003700358,Fiskgjusevägen (Uppsala),Sävja kyrka (Uppsala),59.820076,17.70888,59.820667,17.703387,1784,37,5,0.868,70.38690909090909
9022003781172/9022003781002,Kommunhuset (Enköping),Gustav Adolfs plan (Enköping),59.631853,17.072124,59.636758,17.075465,2096,130,41,0.738,70.31127272727272
9022003700152/9022003700153,Bärbygatan (Uppsala),Bärbyparken (Uppsala),59.885549,17.618158,59.884482,17.614813,1804,39,0,0.857,70.274
9022003700209/9022003700208,Herrhagens Byväg (Uppsala),Stenhagenskolan (Uppsala),59.855311,17.555814,59.857704,17.562829,2246,147,-57,0.688,70.23854545454545
9022003780017/9022003780768,Nävervägen (Björklinge) (Uppsala),Sätunavägen (Björklinge) (Uppsala),60.036323,17.550916,60.031316,17.552051,1780,62,0,0.867,70.14818181818181
9022003700021/9022003700387,Grindstugan (Uppsala),Ulleråker norra (Uppsala),59.839989,17.63996,59.83276,17.642666,1788,111,12,0.861,69.97581818181817
9022003700339/9022003700338,Ölandsresan (Uppsala),Lapplandsresan (Uppsala),59.814161,17.7025,59.816257,17.699161,2154,42,16,0.714,69.90709090909091
9022003700549/9022003700035,Börjegatan (Uppsala),Luthagsesplanaden (Uppsala),59.862598,17.613838,59.862582,17.624781,1794,118,18,0.857,69.88445454545455
9022003700571/9022003700209,Kiselvägen (Uppsala),Herrhagens Byväg (Uppsala),59.851801,17.55438,59.855311,17.555814,2228,135,-64,0.69,69.87818181818182
9022003700277/9022003700275,Kamomillgatan (Uppsala),Timjansgatan (Uppsala),59.872691,17.682422,59.87089,17.690998,1998,113,-33,0.769,69.83918181818181
9022003700289/9022003700393,Sunnerstabacken (Uppsala),Trasthagen (Uppsala),59.790371,17.658291,59.789335,17.645711,1703,97,0,0.9,69.66818181818182
9022003700547/9022003700499,Stålgatan södra (Uppsala),Coop/IKEA (Uppsala),59.845717,17.67382,59.846031,17.694,1735,170,23,0.882,69.55772727272726
9022003700172/9022003700602,Skolgatan (Uppsala),Götgatan (Uppsala),59.863106,17.635574,59.864353,17.627252,2244,90,44,0.681,69.462
9022003700005/9022003700081,Bandstolsvägen (Uppsala),August Södermans väg (Uppsala),59.813615,17.622219,59.815627,17.619529,2112,40,15,0.723,69.408
9022003700393/9022003700289,Trasthagen (Uppsala),Sunnerstabacken (Uppsala),59.789335,17.645711,59.790371,17.658291,1788,130,-4,0.854,69.40690909090908
9022003700094/9022003700110,Kyrkogårdsgatan (Uppsala),Saluhallen (Uppsala),59.857313,17.62601,59.859532,17.632414,1899,94,23,0.802,69.22718181818182
9022003700532/9022003700125,Auroragatan (Uppsala),Djäknegatan (Uppsala),59.871149,17.630462,59.87136,17.639224,1741,132,-19,0.874,69.16518181818182
9022003700388/9022003700389,Hammarby kyrkogård (Uppsala),Genetikvägen (Uppsala),59.82776,17.644513,59.816416,17.648737,1824,126,-24,0.833,69.06327272727272
9022003780110/9022003780114,Örby södra,Rasborondellen,59.937263,17.82053,59.951722,17.869059,1570,147,2,0.967,69.00863636363636
9022003700293/9022003700294,Granebergsparken (Uppsala),Lyssnavägen (Uppsala),59.787832,17.637613,59.786604,17.634215,1681,28,-3,0.903,68.99740909090909
9022003700362/9022003700361,Backmovägen (Uppsala),Hultvägen (Uppsala),59.815895,17.717948,59.818239,17.714855,1827,36,2,0.829,68.84468181818181
9022003700358/9022003700356,Sävja kyrka (Uppsala),Bonadsvägen (Uppsala),59.820667,17.703387,59.818737,17.690869,1778,160,-27,0.851,68.77627272727273
9022003705061/9022003705057,Yttergrans kyrka (Håbo),Grans gård (Håbo),59.601567,17.507218,59.59451,17.510669,1733,56,-3,0.873,68.7685909090909
9022003700361/9022003700360,Hultvägen (Uppsala),Fiskgjusevägen (Uppsala),59.818239,17.714855,59.820076,17.70888,1784,48,1,0.847,68.684
9022003700450/9022003700550,Mistelgatan södra (Uppsala),Bolandsparken (Uppsala),59.85862,17.680665,59.858065,17.673619,1838,74,15,0.822,68.67436363636364
9022003705068/9022003705061,Ekilla (Håbo),Yttergrans kyrka (Håbo),59.610362,17.500558,59.601567,17.507218,1733,76,-9,0.871,68.61104545454545
9022003700141/9022003700256,Gränbystaden (Uppsala),Svärdsliljegatan (Uppsala),59.875371,17.675144,59.872624,17.6789,1720,125,1,0.877,68.56545454545456
9022003700393/9022003700293,Trasthagen (Uppsala),Granebergsparken (Uppsala),59.789335,17.645711,59.787832,17.637613,1681,90,-9,0.897,68.53895454545454
9022003700342/9022003700446,Gotlandsresan (Uppsala),Smålandsvägen (Uppsala),59.808874,17.696817,59.806097,17.69142,2102,121,-49,0.716,68.41054545454546
9022003700408/9022003700409,Vårdsätravik (Uppsala),Lurbo bro (Uppsala),59.801157,17.609567,59.805493,17.605702,1681,64,1,0.892,68.1569090909091
9022003700218/9022003700401,Lundellska skolan (Uppsala),Kungshörnet (Uppsala),59.838602,17.65123,59.844531,17.666277,1735,122,-19,0.862,67.98045454545453
9022003700374/9022003700003,Gimogatan (Uppsala),Uppsala Mimmi Ekholms plats (Uppsala),59.868859,17.607715,59.866036,17.608651,1735,102,17,0.86,67.82272727272726
9022003700527/9022003700512,Uppsala Business Park Norra (Uppsala),Uppsala Business Park östra (Uppsala),59.85315,17.710251,59.84974,17.708896,2563,60,39,0.581,67.6865
9022003700567/9022003700002,Nyby köpcentrum (Uppsala),Fredrika Bremersgatan (Uppsala),59.886218,17.661694,59.886818,17.654831,1726,49,8,0.862,67.62781818181818
9022003700322/9022003700003,Dalgatan (Uppsala),Uppsala Mimmi Ekholms plats (Uppsala),59.863128,17.613171,59.866036,17.608651,1741,69,-7,0.852,67.42418181818182
9022003700106/9022003700104,Uppsala Hamberg,Flogsta centrum (Uppsala),59.849238,17.580245,59.852083,17.587641,1899,87,-23,0.781,67.4145
9022003700095/9022003700491,Kungsgärdets vårdcentral (Uppsala),Tartugatan (Uppsala),59.85601,17.621513,59.852335,17.613906,1873,111,23,0.789,67.17259090909091
9022003700413/9022003700412,Källbovägen (Uppsala),Djurgårdsvägen (Uppsala),59.816422,17.612014,59.813879,17.61086,1967,28,7,0.75,67.05681818181819
9022003780110/9022003780542,Örby södra,Grän vägskäl (Uppsala),59.937263,17.82053,59.931122,17.801034,1577,66,-2,0.935,67.02250000000001
9022003700004/9022003700087,Gottsunda Simhall (Uppsala),Fiolbacken (Uppsala),59.808623,17.631304,59.809365,17.6322,2112,29,10,0.698,67.008
9022003781237/9022003781238,Vällinge (Enköping),Skolsta (Enköping),59.658907,17.220129,59.660698,17.243607,2051,115,-44,0.718,66.93718181818183
9022003700008/9022003700445,Jordgubbsgatan (Uppsala),Hjortrongatan (Uppsala),59.864386,17.701842,59.86317,17.708985,1899,112,-31,0.775,66.8965909090909
9022003700003/9022003700322,Uppsala Mimmi Ekholms plats (Uppsala),Dalgatan (Uppsala),59.866036,17.608651,59.863128,17.613171,1735,61,9,0.848,66.87636363636364
9022003780692/9022003780703,Gränbytä (Uppsala),Gränby (Björklinge) (Uppsala),60.001568,17.563927,60.009255,17.560373,1537,47,0,0.957,66.8595
9022003780114/9022003780110,Rasborondellen,Örby södra,59.951722,17.869059,59.937263,17.82053,1577,140,10,0.932,66.80745454545455
9022003700252/9022003700114,Vittulsbergsvägen (Uppsala),Gamla Uppsala (Uppsala),59.905647,17.643133,59.896589,17.636629,1922,79,22,0.763,66.65845454545455
9022003700591/9022003700032,Stadsbiblioteket (Uppsala),Klostergatan (Uppsala),59.861031,17.635638,59.861158,17.636824,1899,83,25,0.772,66.63763636363636
9022003700412/9022003700411,Djurgårdsvägen (Uppsala),Gottsundavägen (Uppsala),59.813879,17.61086,59.808987,17.608172,1967,96,-34,0.743,66.43095454545454
9022003700401/9022003700218,Kungshörnet (Uppsala),Lundellska skolan (Uppsala),59.844531,17.666277,59.838602,17.65123,1720,115,-19,0.849,66.37636363636364
9022003700621/9022003700320,Uppsala Odensgatan,Sverkerskolan (Uppsala),59.86205,17.625644,59.86472,17.620773,1784,86,16,0.818,66.33236363636364
9022003700294/9022003700404,Lyssnavägen (Uppsala),Gullvivevägen (Uppsala),59.786604,17.634215,59.791754,17.623506,1681,92,-13,0.868,66.32309090909091
9022003700043/9022003700323,Stabby prästgård (Uppsala),Norrlandsgatan (Uppsala),59.863263,17.603931,59.860709,17.608184,1794,51,9,0.813,66.29645454545454
9022003700389/9022003700284,Genetikvägen (Uppsala),Ultunaallén (Uppsala),59.816416,17.648737,59.813145,17.650874,1788,66,0,0.815,66.23727272727272
9022003700602/9022003700172,Götgatan (Uppsala),Skolgatan (Uppsala),59.864353,17.627252,59.863106,17.635574,2172,60,30,0.67,66.14727272727274
9022003700499/9022003700270,Coop/IKEA (Uppsala),Bolandsgatan (Uppsala),59.846031,17.694,59.848969,17.691311,1735,166,-28,0.838,66.08772727272726
9022003700109/9022003700107,Säves väg (Uppsala),Ihres väg (Uppsala),59.846119,17.595102,59.847179,17.583151,1899,102,26,0.764,65.9470909090909
9022003700445/9022003700008,Hjortrongatan (Uppsala),Jordgubbsgatan (Uppsala),59.86317,17.708985,59.864386,17.701842,1832,128,-33,0.79,65.78545454545454
9022003700408/9022003700407,Vårdsätravik (Uppsala),Granelidsvägen (Uppsala),59.801157,17.609567,59.799646,17.615686,1623,52,0,0.891,65.7315
9022003780542/9022003780110,Grän vägskäl (Uppsala),Örby södra,59.931122,17.801034,59.937263,17.82053,1570,58,2,0.918,65.51181818181819
9022003781410/9022003781226,Enköpings företagspark (Enköping),Varghällar (Enköping),59.649555,17.149872,59.650515,17.158637,2051,14,6,0.7,65.25909090909092
9022003700287/9022003700288,Lärkvägen (Uppsala),Ekolnsvägen norra (Uppsala),59.796862,17.655747,59.793422,17.657071,2129,46,10,0.673,65.12804545454546
9022003700094/9022003700129,Kyrkogårdsgatan (Uppsala),Ekonomikum (Uppsala),59.857313,17.62601,59.860404,17.620003,1720,130,-25,0.831,64.96909090909091
9022003700126/9022003700137,Portalgatan (Uppsala),Bureusgatan (Uppsala),59.867586,17.63948,59.870234,17.64725,1741,115,24,0.82,64.89181818181818
9022003700110/9022003700621,Saluhallen (Uppsala),Uppsala Odensgatan,59.859532,17.632414,59.86205,17.625644,1784,150,-37,0.8,64.87272727272727
9022003700409/9022003700411,Lurbo bro (Uppsala),Gottsundavägen (Uppsala),59.805493,17.605702,59.808987,17.608172,1681,45,-3,0.848,64.79490909090909
9022003700358/9022003700360,Sävja kyrka (Uppsala),Fiskgjusevägen (Uppsala),59.820667,17.703387,59.820076,17.70888,1794,75,-20,0.794,64.74709090909091
9022003700547/9022003700546,Stålgatan södra (Uppsala),Rapsgatan (Uppsala),59.845717,17.67382,59.843842,17.688827,1822,50,13,0.78,64.59818181818181
9022003700256/9022003700636,Svärdsliljegatan (Uppsala),Uppsala Årsta torg,59.872624,17.6789,59.865787,17.681747,1720,89,18,0.826,64.57818181818182
9022003779093/9022003700546,Uppsala Business Park södra (Uppsala),Rapsgatan (Uppsala),59.845819,17.70439,59.843842,17.688827,1711,122,-25,0.83,64.55136363636363
9022003780394/9022003780063,Sätra (Skärfälten) (Uppsala),Navestahage (Uppsala),59.814732,17.481903,59.810858,17.470266,1550,34,1,0.914,64.39545454545454
9022003782367/9022003782046,Ulrikeberg (Östhammar),Ringvägen (Östhammar),60.259734,18.359201,60.256055,18.348759,1684,59,9,0.839,64.22163636363636
9022003700407/9022003700406,Granelidsvägen (Uppsala),Slånvägen (Uppsala),59.799646,17.615686,59.795195,17.620041,1623,56,-8,0.87,64.18227272727272
9022003700087/9022003700004,Fiolbacken (Uppsala),Gottsunda Simhall (Uppsala),59.809365,17.6322,59.808623,17.631304,2163,76,-40,0.652,64.10345454545454
9022003782076/9022003782367,Vårdcentrum (Östhammar),Ulrikeberg (Östhammar),60.259529,18.364715,60.259734,18.359201,1786,36,0,0.789,64.05245454545455
9022003700083/9022003700082,Morkullevägen (Uppsala),Orkestervägen (Uppsala),59.803049,17.644097,59.806765,17.637779,1623,68,-4,0.868,64.03472727272727
9022003780674/9022003780692,Drälinge (Uppsala),Gränbytä (Uppsala),59.991852,17.568161,60.001568,17.563927,1519,64,0,0.924,63.798
9022003700032/9022003700617,Klostergatan (Uppsala),Uppsala Regionens hus,59.861158,17.636824,59.860449,17.64587,1899,287,-101,0.739,63.78913636363636
9022003700160/9022003700159,Sköldungagatan (Uppsala),Torbjörnsgatan (Uppsala),59.873208,17.625754,59.87541,17.622927,1704,77,-12,0.821,63.59018181818181
9022003700450/9022003700052,Mistelgatan södra (Uppsala),Kummingatan (Uppsala),59.85862,17.680665,59.861295,17.689509,1899,71,24,0.736,63.530181818181816
9022003700200/9022003700057,Gröna gatan (Uppsala),Apelgatan (Uppsala),59.867249,17.677473,59.865955,17.672473,2161,51,28,0.646,63.45481818181819
9022003700159/9022003700157,Torbjörnsgatan (Uppsala),Fjärdhundragatan (Uppsala),59.87541,17.622927,59.878713,17.617839,1704,77,-9,0.819,63.435272727272725
9022003700355/9022003700356,Handarbetsvägen (Uppsala),Bonadsvägen (Uppsala),59.820816,17.691147,59.818737,17.690869,1794,77,-23,0.777,63.36081818181818
9022003705054/9022003705057,Gransäterskolan (Bålsta) (Håbo),Grans gård (Håbo),59.582287,17.508174,59.59451,17.510669,1531,107,5,0.91,63.32772727272728
9022003700255/9022003700613,Marknadsgatan (Uppsala),Uppsala Takpannegatan,59.879833,17.674519,59.884258,17.670212,1726,111,-27,0.806,63.23436363636364
9022003700406/9022003700404,Slånvägen (Uppsala),Gullvivevägen (Uppsala),59.795195,17.620041,59.791754,17.623506,1623,51,-6,0.857,63.223227272727264
9022003700404/9022003700294,Gullvivevägen (Uppsala),Lyssnavägen (Uppsala),59.791754,17.623506,59.786604,17.634215,1618,91,-13,0.858,63.102
9022003779085/9022003780412,Nåsten (Uppsala),Kristineberg (Uppsala),59.841521,17.535377,59.835777,17.518776,1674,50,9,0.828,63.00327272727272
9022003780792/9022003780017,Norra Långåsvägen (Björklinge) (Uppsala),Nävervägen (Björklinge) (Uppsala),60.039642,17.550445,60.036323,17.550916,1780,40,1,0.778,62.947272727272725
9022003700203/9022003700270,Hanselligatan (Uppsala),Bolandsgatan (Uppsala),59.852417,17.693808,59.848969,17.691311,1720,140,-31,0.805,62.936363636363645
9022003780412/9022003779085,Kristineberg (Uppsala),Nåsten (Uppsala),59.835777,17.518776,59.841521,17.535377,1662,50,1,0.833,62.92936363636363
9022003780063/9022003780316,Navestahage (Uppsala),Lugnet (Ramstalund) (Uppsala),59.810858,17.470266,59.808038,17.462516,1502,23,1,0.917,62.60609090909091
9022003780767/9022003782130,EWE-möbler (Uppsala),Skoby (Östhammar),60.024618,17.994664,60.032629,18.021,1464,82,3,0.939,62.48618181818181
9022003700499/9022003700547,Coop/IKEA (Uppsala),Stålgatan södra (Uppsala),59.846031,17.694,59.845717,17.67382,1720,195,50,0.799,62.467272727272736
9022003782046/9022003782367,Ringvägen (Östhammar),Ulrikeberg (Östhammar),60.256055,18.348759,60.259734,18.359201,1785,88,-25,0.769,62.39386363636364
9022003700125/9022003700124,Djäknegatan (Uppsala),Kantorsgatan (Uppsala),59.87136,17.639224,59.874129,17.640858,1991,91,40,0.689,62.354499999999994
9022003700094/9022003700095,Kyrkogårdsgatan (Uppsala),Kungsgärdets vårdcentral (Uppsala),59.857313,17.62601,59.85601,17.621513,1873,129,-47,0.731,62.23468181818182
9022003781341/9022003780341,Säva (Enköping),Brunna (Uppsala),59.766391,17.387315,59.778484,17.405159,1445,87,-1,0.946,62.135000000000005
9022003780703/9022003780712,Gränby (Björklinge) (Uppsala),Sandbro vägskäl (Björklinge) (Uppsala),60.009255,17.560373,60.012191,17.559022,1513,18,-2,0.9,61.89545454545454
9022003700082/9022003700014,Orkestervägen (Uppsala),Gottsunda torg (Uppsala),59.806765,17.637779,59.811287,17.62694,1617,235,-40,0.842,61.887
9022003700019/9022003700579,Valsätraskolan (Uppsala),Slädvägen (Uppsala),59.821549,17.628891,59.823037,17.626494,2533,26,22,0.537,61.828227272727275
9022003700104/9022003700106,Flogsta centrum (Uppsala),Uppsala Hamberg,59.852083,17.587641,59.849238,17.580245,1838,92,-31,0.74,61.82363636363636
9022003705072/9022003705068,Vi (Håbo),Ekilla (Håbo),59.616768,17.49879,59.610362,17.500558,1549,43,-6,0.878,61.81918181818182
9022003700107/9022003700106,Ihres väg (Uppsala),Uppsala Hamberg,59.847179,17.583151,59.849238,17.580245,1899,103,-40,0.716,61.80381818181817
9022003780399/9022003780412,Skärfälten (Uppsala),Kristineberg (Uppsala),59.819808,17.493532,59.835777,17.518776,1635,102,17,0.827,61.461136363636356
9022003700409/9022003700408,Lurbo bro (Uppsala),Vårdsätravik (Uppsala),59.805493,17.605702,59.801157,17.609567,1623,51,5,0.833,61.45268181818181
9022003780351/9022003780362,Västergärde (Uppsala),Bragby (Uppsala),59.782626,17.416665,59.789164,17.431746,1445,57,-3,0.935,61.41250000000001
9022003700545/9022003700303,Nyodlarvägen (Bälinge) (Uppsala),Prebendevägen (Bälinge) (Uppsala),59.950349,17.548453,59.946527,17.541416,1458,96,7,0.926,61.368545454545455
9022003781238/9022003781237,Skolsta (Enköping),Vällinge (Enköping),59.660698,17.243607,59.658907,17.220129,2106,54,21,0.641,61.36118181818183
9022003781334/9022003781341,Lilla Ransta (Enköping),Säva (Enköping),59.760383,17.374023,59.766391,17.387315,1428,51,0,0.945,61.339090909090906
9022003780607/9022003780627,Bälinge vägskäl (Lövstalöt) (Uppsala),Högsta (Uppsala),59.963431,17.582014,59.971262,17.578458,1479,53,-4,0.912,61.31127272727274
9022003781334/9022003781329,Lilla Ransta (Enköping),Gryta skola (Enköping),59.760383,17.374023,59.751352,17.353478,1447,78,-4,0.931,61.23440909090909
9022003780196/9022003779093,Viktoria (Uppsala),Uppsala Business Park södra (Uppsala),59.846117,17.709832,59.845819,17.70439,1711,46,-12,0.786,61.129363636363635
9022003700063/9022003700591,Vaksalagatan (Uppsala),Stadsbiblioteket (Uppsala),59.860707,17.643421,59.861031,17.635638,1784,78,22,0.753,61.061454545454545
9022003780412/9022003780399,Kristineberg (Uppsala),Skärfälten (Uppsala),59.835777,17.518776,59.819808,17.493532,1496,111,-6,0.897,60.996
9022003700162/9022003700160,Svartbäckens vårdcentral (Uppsala),Sköldungagatan (Uppsala),59.869091,17.628082,59.873208,17.625754,1704,81,21,0.787,60.95672727272727
9022003782367/9022003782076,Ulrikeberg (Östhammar),Vårdcentrum (Östhammar),60.259734,18.359201,60.259529,18.364715,1759,51,-3,0.76,60.765454545454546
9022003782076/9022003782004,Vårdcentrum (Östhammar),Östhammar busstation,60.259529,18.364715,60.258356,18.369683,1888,140,-22,0.707,60.67345454545454
9022003705061/9022003705068,Yttergrans kyrka (Håbo),Ekilla (Håbo),59.601567,17.507218,59.610362,17.500558,1531,53,8,0.871,60.61368181818182
9022003780387/9022003780380,Rosendal (Ramstalund) (Uppsala),Lund (Ramstalund) (Uppsala),59.806925,17.458861,59.803355,17.452198,1556,25,-1,0.857,60.61327272727273
9022003700065/9022003700094,Slottsbacken (Uppsala),Kyrkogårdsgatan (Uppsala),59.85489,17.632428,59.857313,17.62601,1720,91,26,0.775,60.59090909090909
9022003780362/9022003780351,Bragby (Uppsala),Västergärde (Uppsala),59.789164,17.431746,59.782626,17.416665,1642,51,-10,0.81,60.45545454545455
9022003705068/9022003705072,Ekilla (Håbo),Vi (Håbo),59.610362,17.500558,59.616768,17.49879,1531,32,4,0.868,60.40490909090909
9022003700532/9022003700330,Auroragatan (Uppsala),Fyrishov (Uppsala),59.871149,17.630462,59.87118,17.626946,1727,135,-39,0.768,60.288000000000004
9022003700115/9022003700607,Regins väg (Uppsala),Kungshögarna (Uppsala),59.894743,17.636974,59.897444,17.635157,1991,125,-59,0.665,60.182500000000005
9022003700600/9022003700443,Uppsala Centralstationen (Uppsala),Solrosgatan (Uppsala),59.858683,17.64372,59.857708,17.658856,1899,130,57,0.697,60.16377272727272
9022003700294/9022003700293,Lyssnavägen (Uppsala),Granebergsparken (Uppsala),59.786604,17.634215,59.787832,17.637613,1623,23,4,0.815,60.12477272727272
9022003700407/9022003700408,Granelidsvägen (Uppsala),Vårdsätravik (Uppsala),59.799646,17.615686,59.801157,17.609567,1681,41,7,0.783,59.82831818181818
9022003780715/9022003780759,Stavby kyrka (Uppsala),Skeberga (Uppsala),60.00935,17.969321,60.021835,17.987627,1464,90,3,0.899,59.824363636363636
9022003191086/9022003191157,Terminal 2 -3 (Arlanda) (Sigtuna),Driftvägen (Arlanda) (Sigtuna),59.64409,17.929886,59.648007,17.941966,1523,189,-28,0.863,59.74313636363637
9022003700445/9022003700444,Hjortrongatan (Uppsala),Klarbärsgatan (Uppsala),59.86317,17.708985,59.860323,17.707805,1899,105,-46,0.692,59.73218181818181
9022003700094/9022003700065,Kyrkogårdsgatan (Uppsala),Slottsbacken (Uppsala),59.857313,17.62601,59.85489,17.632428,1735,94,30,0.757,59.69977272727272
9022003700414/9022003700413,Martallsvägen (Uppsala),Källbovägen (Uppsala),59.819664,17.616504,59.816422,17.612014,1967,35,16,0.667,59.63586363636364
9022003779094/9022003780196,Kumla (Uppsala),Viktoria (Uppsala),59.84544,17.727368,59.846117,17.709832,1711,159,-47,0.766,59.57390909090909
9022003780832/9022003780829,Skyttorps skola,Skyttorps vägskäl (v. 290),60.074992,17.746007,60.072908,17.758281,1474,76,4,0.889,59.563
9022003780351/9022003780341,Västergärde (Uppsala),Brunna (Uppsala),59.782626,17.416665,59.778484,17.405159,1447,50,-1,0.903,59.39277272727272
9022003700129/9022003700094,Ekonomikum (Uppsala),Kyrkogårdsgatan (Uppsala),59.860404,17.620003,59.857313,17.62601,1735,66,13,0.752,59.305454545454545
9022003700356/9022003700355,Bonadsvägen (Uppsala),Handarbetsvägen (Uppsala),59.818737,17.690869,59.820816,17.691147,1818,39,15,0.717,59.25027272727273
9022003781279/9022003781287,Korskrogen (Enköping),Varsta (Enköping),59.703026,17.278517,59.710647,17.27942,1393,41,0,0.935,59.20250000000001
9022003780687/9022003780672,Gamla Gränome (Uppsala),Lydinge vägskäl (Uppsala),59.992551,17.952792,59.9839,17.944777,1487,51,-7,0.875,59.14204545454545
9022003700107/9022003700109,Ihres väg (Uppsala),Säves väg (Uppsala),59.847179,17.583151,59.846119,17.595102,1835,164,-63,0.709,59.13704545454545
9022003780024/9022003780731,Björklinge centrum (Uppsala),Björklingegården (Uppsala),60.029041,17.553025,60.023283,17.553959,1658,80,-14,0.783,59.009727272727275
9022003700124/9022003700123,Kantorsgatan (Uppsala),Heidenstamstorg (Uppsala),59.874129,17.640858,59.877638,17.645534,1994,120,-61,0.651,59.004272727272735
9022003700043/9022003700003,Stabby prästgård (Uppsala),Uppsala Mimmi Ekholms plats (Uppsala),59.863263,17.603931,59.866036,17.608651,1784,169,-61,0.727,58.95309090909091
9022003700003/9022003700043,Uppsala Mimmi Ekholms plats (Uppsala),Stabby prästgård (Uppsala),59.866036,17.608651,59.863263,17.603931,1794,64,25,0.722,58.87581818181818
9022003781270/9022003781274,Hallarbyvägen (Enköping),Härvesta (Enköping),59.692346,17.279078,59.697573,17.278846,1393,27,-2,0.929,58.82259090909091
9022003780715/9022003780687,Stavby kyrka (Uppsala),Gamla Gränome (Uppsala),60.00935,17.969321,59.992551,17.952792,1487,124,-18,0.87,58.80409090909091
9022003700444/9022003700441,Klarbärsgatan (Uppsala),Södra Slavstavägen (Uppsala),59.860323,17.707805,59.859064,17.706109,1899,96,-44,0.681,58.78268181818182
9022003781287/9022003781279,Varsta (Enköping),Korskrogen (Enköping),59.710647,17.27942,59.703026,17.278517,1395,35,0,0.927,58.780227272727274
9022003700550/9022003700443,Bolandsparken (Uppsala),Solrosgatan (Uppsala),59.858065,17.673619,59.857708,17.658856,1838,173,-73,0.701,58.565363636363635
9022003700218/9022003700021,Lundellska skolan (Uppsala),Grindstugan (Uppsala),59.838602,17.65123,59.839989,17.63996,1720,273,-90,0.749,58.55818181818182
9022003780687/9022003780715,Gamla Gränome (Uppsala),Stavby kyrka (Uppsala),59.992551,17.952792,60.00935,17.969321,1464,92,-11,0.879,58.49345454545455
9022003700100/9022003700101,Nordengatan (Uppsala),Ekebyhus (Uppsala),59.850913,17.606977,59.851643,17.603465,1873,77,34,0.686,58.40354545454546
9022003781274/9022003781270,Härvesta (Enköping),Hallarbyvägen (Enköping),59.697573,17.278846,59.692346,17.279078,1395,35,-1,0.921,58.399772727272726
9022003700362/9022003700363,Backmovägen (Uppsala),Nyckelaxet (Uppsala),59.815895,17.717948,59.814647,17.724098,1791,110,-43,0.717,58.37031818181818
9022003700617/9022003700622,Uppsala Regionens hus,Uppsala Stadshuset,59.860449,17.64587,59.86072,17.643797,3274,31,49,0.392,58.33672727272727
9022003780692/9022003780674,Gränbytä (Uppsala),Drälinge (Uppsala),60.001568,17.563927,59.991852,17.568161,1494,57,1,0.859,58.33390909090909
9022003700338/9022003700367,Lapplandsresan (Uppsala),Nämndemansvägen (Uppsala),59.816257,17.699161,59.820876,17.696998,2154,59,41,0.594,58.157999999999994
9022003781279/9022003781274,Korskrogen (Enköping),Härvesta (Enköping),59.703026,17.278517,59.697573,17.278846,1395,24,0,0.917,58.146136363636366
9022003781270/9022003781262,Hallarbyvägen (Enköping),Djurby (Enköping),59.692346,17.279078,59.681057,17.276985,1395,56,-4,0.917,58.146136363636366
9022003700536/9022003779087,Stenhagen (Uppsala),Kvarnbolund (Uppsala),59.848034,17.564211,59.845552,17.553071,2579,47,45,0.494,57.91027272727273
9022003700488/9022003700212,Stenhagens centrum (Uppsala),Stenröset (Uppsala),59.850824,17.558987,59.852678,17.564063,2170,61,42,0.587,57.89954545454545
9022003781262/9022003781270,Djurby (Enköping),Hallarbyvägen (Enköping),59.681057,17.276985,59.692346,17.279078,1393,61,-4,0.914,57.87281818181818
9022003782130/9022003782132,Skoby (Östhammar),Spånga vägskäl (Östhammar),60.032629,18.021,60.03617,18.034644,1464,33,0,0.868,57.76145454545455
9022003780722/9022003780712,Björklinge södra (Uppsala),Sandbro vägskäl (Björklinge) (Uppsala),60.0193,17.555776,60.012191,17.559022,1460,69,1,0.87,57.736363636363635
9022003700159/9022003700160,Torbjörnsgatan (Uppsala),Sköldungagatan (Uppsala),59.87541,17.622927,59.873208,17.625754,1804,57,26,0.704,57.727999999999994
9022003705057/9022003705061,Grans gård (Håbo),Yttergrans kyrka (Håbo),59.59451,17.510669,59.601567,17.507218,1531,35,7,0.829,57.69086363636364
9022003700404/9022003700406,Gullvivevägen (Uppsala),Slånvägen (Uppsala),59.791754,17.623506,59.795195,17.620041,1681,58,-19,0.753,57.53604545454545
9022003781262/9022003781249,Djurby (Enköping),Graneberg (Enköping),59.681057,17.276985,59.670976,17.272177,1395,50,3,0.907,57.51204545454545
9022003781329/9022003781334,Gryta skola (Enköping),Lilla Ransta (Enköping),59.751352,17.353478,59.760383,17.374023,1424,78,-10,0.888,57.477818181818186
9022003700256/9022003700141,Svärdsliljegatan (Uppsala),Gränbystaden (Uppsala),59.872624,17.6789,59.875371,17.675144,1713,173,-51,0.738,57.46336363636363
9022003781317/9022003781313,Salnecke park (Örsundsbro) (Enköping),Nysätravägen (Örsundsbro) (Enköping),59.738571,17.320076,59.738197,17.310473,1447,86,-6,0.873,57.4195909090909
9022003779087/9022003779085,Kvarnbolund (Uppsala),Nåsten (Uppsala),59.845552,17.553071,59.841521,17.535377,1674,44,10,0.754,57.37254545454546
9022003700153/9022003700152,Bärbyparken (Uppsala),Bärbygatan (Uppsala),59.884482,17.614813,59.885549,17.618158,1704,57,-20,0.74,57.31636363636363
9022003700270/9022003700499,Bolandsgatan (Uppsala),Coop/IKEA (Uppsala),59.848969,17.691311,59.846031,17.694,1720,60,21,0.733,57.30727272727273
9022003781001/9022003781301,Torslunda (Enköping),Kvekvägen (Örsundsbro) (Enköping),59.720408,17.284008,59.726077,17.297129,1393,67,7,0.905,57.30295454545455
9022003781001/9022003781287,Torslunda (Enköping),Varsta (Enköping),59.720408,17.284008,59.710647,17.27942,1395,50,3,0.902,57.195
9022003700032/9022003700622,Klostergatan (Uppsala),Uppsala Stadshuset,59.861158,17.636824,59.86072,17.643797,1387,139,0,0.907,57.182227272727275
9022003781274/9022003781279,Härvesta (Enköping),Korskrogen (Enköping),59.697573,17.278846,59.703026,17.278517,1393,29,-3,0.903,57.17631818181818
9022003780703/9022003780692,Gränby (Björklinge) (Uppsala),Gränbytä (Uppsala),60.009255,17.560373,60.001568,17.563927,1528,43,3,0.823,57.1610909090909
9022003700579/9022003700414,Slädvägen (Uppsala),Martallsvägen (Uppsala),59.823037,17.626494,59.819664,17.616504,1967,49,27,0.639,57.13240909090909
9022003781322/9022003781317,Salnecke (Örsundsbro) (Enköping),Salnecke park (Örsundsbro) (Enköping),59.742546,17.334235,59.738571,17.320076,1447,96,-14,0.868,57.090727272727264
9022003781287/9022003781001,Varsta (Enköping),Torslunda (Enköping),59.710647,17.27942,59.720408,17.284008,1381,56,-5,0.908,56.99763636363637
9022003780255/9022003730086,Boängsvägen (Knivsta),Knivsta Centralvägen,59.735323,17.797109,59.73055,17.786192,1540,148,-33,0.814,56.98
9022003780768/9022003780024,Sätunavägen (Björklinge) (Uppsala),Björklinge centrum (Uppsala),60.031316,17.552051,60.029041,17.553025,1780,73,-23,0.703,56.879090909090905
9022003700513/9022003700513,Uppsala Business Park västra (Uppsala),Uppsala Business Park västra (Uppsala),59.850242,17.700823,59.850242,17.700823,1970,120,-52,0.635,56.861363636363635
9022003782135/9022003782137,Söderby (Alunda) (Östhammar),Alunda kyrka (Östhammar),60.04704,18.047082,60.058353,18.067677,1535,71,12,0.813,56.72522727272727
9022003781326/9022003781322,Eningböle (Örsundsbro) (Enköping),Salnecke (Örsundsbro) (Enköping),59.74779,17.342622,59.742546,17.334235,1447,64,-2,0.862,56.696090909090906
9022003782046/9022003782356,Ringvägen (Östhammar),Gammelbyn (Östhammar),60.256055,18.348759,60.25371,18.346481,1786,42,18,0.698,56.66490909090909
9022003782130/9022003780767,Skoby (Östhammar),EWE-möbler (Uppsala),60.032629,18.021,60.024618,17.994664,1487,82,-2,0.836,56.506
9022003700155/9022003700153,Flottörgatan (Uppsala),Bärbyparken (Uppsala),59.881423,17.612039,59.884482,17.614813,1704,78,-29,0.729,56.464363636363636
9022003781313/9022003781317,Nysätravägen (Örsundsbro) (Enköping),Salnecke park (Örsundsbro) (Enköping),59.738197,17.310473,59.738571,17.320076,1428,52,7,0.869,56.406
9022003730012/9022003730084,Alsike skola (Knivsta),Alsike Åsgatan,59.750372,17.785799,59.747536,17.790488,1366,74,0,0.907,56.31645454545455
9022003700406/9022003700407,Slånvägen (Uppsala),Granelidsvägen (Uppsala),59.795195,17.620041,59.799646,17.615686,1681,92,-33,0.736,56.23709090909091
9022003700547/9022003700401,Stålgatan södra (Uppsala),Kungshörnet (Uppsala),59.845717,17.67382,59.844531,17.666277,1720,48,18,0.719,56.21272727272727
9022003700546/9022003779093,Rapsgatan (Uppsala),Uppsala Business Park södra (Uppsala),59.843842,17.688827,59.845819,17.70439,1696,87,33,0.728,56.122181818181815
9022003700003/9022003700374,Uppsala Mimmi Ekholms plats (Uppsala),Gimogatan (Uppsala),59.866036,17.608651,59.868859,17.607715,1741,69,29,0.709,56.10768181818182
9022003781341/9022003781334,Säva (Enköping),Lilla Ransta (Enköping),59.766391,17.387315,59.760383,17.374023,1447,61,9,0.853,56.10413636363636
9022003700171/9022003700170,Gnejsplan (Uppsala),Gnejsvägen (Uppsala),59.840954,17.598589,59.839828,17.596263,1488,55,10,0.829,56.07054545454545
9022003700622/9022003700591,Uppsala Stadshuset,Stadsbiblioteket (Uppsala),59.86072,17.643797,59.861031,17.635638,1873,108,61,0.657,55.934590909090915
9022003700208/9022003700208,Stenhagenskolan (Uppsala),Stenhagenskolan (Uppsala),59.857704,17.562829,59.857704,17.562829,1976,120,-27,0.622,55.86690909090909
9022003781249/9022003781242,Graneberg (Enköping),Litslena kyrka (Enköping),59.670976,17.272177,59.663594,17.265946,1395,41,3,0.881,55.86340909090909
9022003700617/9022003700001,Uppsala Regionens hus,Stora Torget (Uppsala),59.860449,17.64587,59.858594,17.639199,1623,273,-85,0.756,55.772181818181814
9022003780639/9022003780661,Högsta macken (Uppsala),Åsby (Uppsala),59.977159,17.575907,59.985206,17.571642,1479,54,0,0.828,55.664181818181824
9022003700141/9022003700255,Gränbystaden (Uppsala),Marknadsgatan (Uppsala),59.875371,17.675144,59.879833,17.674519,1726,62,25,0.707,55.46736363636363
9022003780380/9022003780387,Lund (Ramstalund) (Uppsala),Rosendal (Ramstalund) (Uppsala),59.803355,17.452198,59.806925,17.458861,1470,25,0,0.828,55.32545454545454
9022003780661/9022003780639,Åsby (Uppsala),Högsta macken (Uppsala),59.985206,17.571642,59.977159,17.575907,1460,43,5,0.833,55.280909090909084
9022003780731/9022003780722,Björklingegården (Uppsala),Björklinge södra (Uppsala),60.023283,17.553959,60.0193,17.555776,1658,51,4,0.733,55.24154545454545
9022003700270/9022003700203,Bolandsgatan (Uppsala),Hanselligatan (Uppsala),59.848969,17.691311,59.852417,17.693808,1713,73,26,0.709,55.20531818181818
9022003781317/9022003781322,Salnecke park (Örsundsbro) (Enköping),Salnecke (Örsundsbro) (Enköping),59.738571,17.320076,59.742546,17.334235,1428,90,15,0.85,55.17272727272727
9022003705054/9022003705052,Gransäterskolan (Bålsta) (Håbo),Medborgarhuset (Bålsta) (Håbo),59.582287,17.508174,59.576376,17.511858,1637,124,-41,0.741,55.13713636363636
9022003700323/9022003700549,Norrlandsgatan (Uppsala),Börjegatan (Uppsala),59.860709,17.608184,59.862598,17.613838,1794,53,26,0.675,55.04318181818182
9022003780341/9022003780351,Brunna (Uppsala),Västergärde (Uppsala),59.778484,17.405159,59.782626,17.416665,1445,40,-7,0.837,54.97568181818182
9022003779094/9022003779096,Kumla (Uppsala),"Årsta vägskäl, v. 282 (Uppsala)",59.84544,17.727368,59.844318,17.73965,1696,64,28,0.713,54.96581818181818
9022003781249/9022003781262,Graneberg (Enköping),Djurby (Enköping),59.670976,17.272177,59.681057,17.276985,1393,56,-9,0.868,54.960181818181816
9022003780829/9022003780832,Skyttorps vägskäl (v. 290),Skyttorps skola,60.072908,17.758281,60.074992,17.746007,1490,69,-18,0.811,54.92681818181819
9022003700157/9022003700155,Fjärdhundragatan (Uppsala),Flottörgatan (Uppsala),59.878713,17.617839,59.881423,17.612039,1704,175,-72,0.709,54.91527272727272
9022003700293/9022003700393,Granebergsparken (Uppsala),Trasthagen (Uppsala),59.787832,17.637613,59.789335,17.645711,1623,107,-33,0.744,54.886909090909086
9022003730015/9022003730014,Sättragatan (Alsike) (Knivsta),Vrå skogsväg (Alsike) (Knivsta),59.756849,17.7778,59.754813,17.781257,1383,54,0,0.873,54.879954545454545
9022003780341/9022003781341,Brunna (Uppsala),Säva (Enköping),59.778484,17.405159,59.766391,17.387315,1447,84,-16,0.833,54.78868181818181
9022003700608/9022003700600,Säbygatan (Uppsala),Uppsala Centralstationen (Uppsala),59.856482,17.657931,59.858683,17.64372,1270,119,3,0.947,54.66772727272727
9022003700355/9022003700354,Handarbetsvägen (Uppsala),Rörbäcksvägen (Uppsala),59.820816,17.691147,59.823215,17.693511,1818,35,18,0.661,54.62263636363637
9022003780380/9022003780371,Lund (Ramstalund) (Uppsala),Ramstalund (Uppsala),59.803355,17.452198,59.797842,17.445797,1511,42,-5,0.795,54.60204545454546
9022003700363/9022003700362,Nyckelaxet (Uppsala),Backmovägen (Uppsala),59.814647,17.724098,59.815895,17.717948,1811,64,33,0.663,54.57695454545455
9022003191088/9022003191157,SAS-hangaren (Arlanda) (Sigtuna),Driftvägen (Arlanda) (Sigtuna),59.652076,17.946269,59.648007,17.941966,1509,72,-14,0.795,54.52977272727273
9022003779085/9022003779087,Nåsten (Uppsala),Kvarnbolund (Uppsala),59.841521,17.535377,59.845552,17.553071,1635,62,19,0.733,54.47522727272727
9022003700106/9022003700107,Uppsala Hamberg,Ihres väg (Uppsala),59.849238,17.580245,59.847179,17.583151,1838,142,-78,0.652,54.471636363636364
9022003700538/9022003700152,Garnisonen (Uppsala),Bärbygatan (Uppsala),59.8879,17.607173,59.885549,17.618158,1804,60,30,0.663,54.366
9022003780661/9022003780674,Åsby (Uppsala),Drälinge (Uppsala),59.985206,17.571642,59.991852,17.568161,1479,42,-8,0.808,54.31963636363637
9022003780394/9022003780399,Sätra (Skärfälten) (Uppsala),Skärfälten (Uppsala),59.814732,17.481903,59.819808,17.493532,1440,40,2,0.829,54.26181818181818
9022003780672/9022003780687,Lydinge vägskäl (Uppsala),Gamla Gränome (Uppsala),59.9839,17.944777,59.992551,17.952792,1480,42,10,0.804,54.087272727272726
9022003780759/9022003780715,Skeberga (Uppsala),Stavby kyrka (Uppsala),60.021835,17.987627,60.00935,17.969321,1487,105,-27,0.8,54.07272727272728
9022003700310/9022003779168,Lytta (Uppsala),Lövstalöt södra (Uppsala),59.943833,17.591238,59.955074,17.585863,1479,75,-18,0.802,53.916272727272734
9022003700547/9022003700270,Stålgatan södra (Uppsala),Bolandsgatan (Uppsala),59.845717,17.67382,59.848969,17.691311,1353,180,0,0.876,53.874
9022003705050/9022003705003,Lilla Hagalund (Bålsta) (Håbo),Bålsta station,59.572541,17.521592,59.567475,17.532712,1631,265,-98,0.724,53.674727272727274
9022003780627/9022003780639,Högsta (Uppsala),Högsta macken (Uppsala),59.971262,17.578458,59.977159,17.575907,1479,40,-9,0.796,53.5129090909091
9022003700600/9022003700608,Uppsala Centralstationen (Uppsala),Säbygatan (Uppsala),59.858683,17.64372,59.856482,17.657931,1272,139,-1,0.924,53.42400000000001
9022003780063/9022003780394,Navestahage (Uppsala),Sätra (Skärfälten) (Uppsala),59.810858,17.470266,59.814732,17.481903,1440,33,6,0.816,53.41090909090909
9022003700544/9022003700373,Librobäck (Uppsala),Skebogatan (Uppsala),59.874143,17.594857,59.870731,17.602745,1313,70,4,0.892,53.23618181818182
9022003700072/9022003700073,Täljstenen (Uppsala),Kvickstensvägen (Uppsala),59.839678,17.613791,59.835991,17.612253,2163,28,20,0.538,52.89518181818182
9022003730014/9022003730013,Vrå skogsväg (Alsike) (Knivsta),Gränsgatan (Alsike) (Knivsta),59.754813,17.781257,59.752709,17.783837,1383,44,-7,0.841,52.86831818181818
9022003780759/9022003780767,Skeberga (Uppsala),EWE-möbler (Uppsala),60.021835,17.987627,60.024618,17.994664,1464,23,6,0.793,52.770545454545456
9022003780607/9022003780601,Bälinge vägskäl (Lövstalöt) (Uppsala),Lövstalöt norra (Uppsala),59.963431,17.582014,59.958427,17.584271,1461,26,5,0.793,52.662409090909094
9022003780627/9022003780607,Högsta (Uppsala),Bälinge vägskäl (Lövstalöt) (Uppsala),59.971262,17.578458,59.963431,17.582014,1461,41,8,0.791,52.529590909090906
